speciesCode,comName,sciName,locId,locName,obsDt,howMany,lat,lng,locationPrivate,exoticCategory,region
tamcon1,Tamarugo Conebill,Conirostrum tamarugense,L3255029,RN Los Flamencos--Bosque de Tambillo,2015-01-01,9.0,-23.1200457,-68.0791426,False,-1,Antofagasta
impcor1,Imperial Cormorant,Leucocarbo atriceps,L3457267,"Canal Errazuriz, N of junction with Canal Corcovado",2015-01-01,300.0,-45.6828918,-73.8545609,True,-1,Aisén del General Carlos Ibáñez del Campo
gyhsif1,Gray-hooded Sierra Finch,Phrygilus gayi,L13172288,Los Pinares de Algarrobo,2015-01-02,0.0,-33.3864937,-71.6618746,True,-1,Valparaíso
snoplo5,Snowy Plover,Charadrius nivosus,L2992535,Punta Puyay,2015-01-02,7.0,-32.5028102,-71.4310104,True,-1,Valparaíso
ticdor1,Ticking Doradito,Pseudocolopteryx citreola,L629586,SN Humedal Los Batros y Laguna Grande--Laguna Grande San Pedro,2015-01-02,3.0,-36.8502303,-73.1083488,False,-1,Bío-Bío
rebtro,Red-billed Tropicbird,Phaethon aethereus,L1108905,RN Pingüino de Humboldt--Isla Chañaral,2015-01-02,1.0,-29.0360601,-71.5790176,False,-1,Atacama
sander,Sanderling,Calidris alba,L6941918,Playa norte - Algarrobo,2015-01-03,99.0,-33.323152,-71.651775,True,-1,Valparaíso
gyhsif1,Gray-hooded Sierra Finch,Phrygilus gayi,L504548,Estero Mantagua,2015-01-03,4.0,-32.8844165,-71.5067482,False,-1,Valparaíso
margod,Marbled Godwit,Limosa fedoa,L673642,Río Elqui--Desembocadura,2015-01-03,1.0,-29.8933968,-71.2727094,False,-1,Coquimbo
budger,Budgerigar,Melopsittacus undulatus,L3278451,Alonso de Ercilla,2015-01-03,1.0,-36.6251516,-72.0708328,True,1,Ñuble
cingrt1,Cinereous Ground-Tyrant,Muscisaxicola cinereus,L1040783,Embalse La Laguna,2015-01-03,1.0,-30.2187285,-70.0371552,False,-1,Coquimbo
whfibi,White-faced Ibis,Plegadis chihi,L3043703,Humedal Los Batros,2015-01-03,40.0,-36.9924073,-73.1218243,False,-1,Bío-Bío
hudgod,Hudsonian Godwit,Limosa haemastica,L636004,Estero Tongoy--Desembocadura,2015-01-04,7.0,-30.25497,-71.49359,False,-1,Coquimbo
whcpin,White-cheeked Pintail,Anas bahamensis,L793367,SN Humedal Río Copiapó--Desembocadura,2015-01-04,6.0,-27.3177895,-70.9263611,False,-1,Atacama
y00678,Crested Caracara,Caracara plancus,L793367,SN Humedal Río Copiapó--Desembocadura,2015-01-04,1.0,-27.3177895,-70.9263611,False,-1,Atacama
guacor1,Guanay Cormorant,Leucocarbo bougainvillii,L571412,MN Islotes de Puñihuil,2015-01-04,1.0,-41.9252706,-74.0392685,False,-1,Los Lagos
thbsis1,Thick-billed Siskin,Spinus crassirostris,L811659,MN El Morado,2015-01-04,2.0,-33.7945557,-70.0733757,False,-1,Región Metropolitana de Santiago
perter2,Peruvian Tern,Sternula lorata,L614832,Arica Pelagico,2015-01-04,3.0,-18.4665838,-70.4587555,True,-1,Arica y Parinacota
bulshe,Buller's Shearwater,Ardenna bulleri,L614832,Arica Pelagico,2015-01-04,1.0,-18.4665838,-70.4587555,True,-1,Arica y Parinacota
rempar,Red-masked Parakeet,Psittacara erythrogenys,L940378,Museo de Azapa,2015-01-04,3.0,-18.5157287,-70.1809323,False,1,Arica y Parinacota
ashgoo1,Ashy-headed Goose,Chloephaga poliocephala,L2386521,Laguna Cabeza de Mar 4,2015-01-05,105.0,-52.6887564,-70.8954191,False,-1,Magallanes
cintea,Cinnamon Teal,Spatula cyanoptera,L2386521,Laguna Cabeza de Mar 4,2015-01-05,1.0,-52.6887564,-70.8954191,False,-1,Magallanes
andduc1,Andean Duck,Oxyura ferruginea,L2386521,Laguna Cabeza de Mar 4,2015-01-05,21.0,-52.6887564,-70.8954191,False,-1,Magallanes
relcor1,Red-legged Cormorant,Poikilocarbo gaimardi,L571412,MN Islotes de Puñihuil,2015-01-05,125.0,-41.9252706,-74.0392685,False,-1,Los Lagos
royalb1,Royal Albatross,Diomedea epomophora,L3705789,At Sea - Drake Passage north,2015-01-05,12.0,-56.8191383,-65.8665991,True,-1,Magallanes
wanalb,Wandering Albatross,Diomedea exulans,L3705789,At Sea - Drake Passage north,2015-01-05,8.0,-56.8191383,-65.8665991,True,-1,Magallanes
blupet1,Blue Petrel,Halobaena caerulea,L3705789,At Sea - Drake Passage north,2015-01-05,2.0,-56.8191383,-65.8665991,True,-1,Magallanes
greshe,Great Shearwater,Ardenna gravis,L3705789,At Sea - Drake Passage north,2015-01-05,3.0,-56.8191383,-65.8665991,True,-1,Magallanes
whcpin,White-cheeked Pintail,Anas bahamensis,L668852,Río Lluta--Desembocadura,2015-01-05,19.0,-18.4165392,-70.3224081,False,-1,Arica y Parinacota
semplo,Semipalmated Plover,Charadrius semipalmatus,L668852,Río Lluta--Desembocadura,2015-01-05,23.0,-18.4165392,-70.3224081,False,-1,Arica y Parinacota
leasan,Least Sandpiper,Calidris minutilla,L668852,Río Lluta--Desembocadura,2015-01-05,4.0,-18.4165392,-70.3224081,False,-1,Arica y Parinacota
grhgul,Gray-hooded Gull,Chroicocephalus cirrocephalus,L668852,Río Lluta--Desembocadura,2015-01-05,1.0,-18.4165392,-70.3224081,False,-1,Arica y Parinacota
comter,Common Tern,Sterna hirundo,L668852,Río Lluta--Desembocadura,2015-01-05,137.0,-18.4165392,-70.3224081,False,-1,Arica y Parinacota
osprey,Osprey,Pandion haliaetus,L668852,Río Lluta--Desembocadura,2015-01-05,1.0,-18.4165392,-70.3224081,False,-1,Arica y Parinacota
gybsht1,Gray-bellied Shrike-Tyrant,Agriornis micropterus,L3307277,Campo de Margoni,2015-01-05,1.0,-51.5855028,-72.5992909,True,-1,Magallanes
bkfibi2,Andean Ibis,Theristicus branickii,L1048923,Molinos,2015-01-06,2.0,-18.3821935,-69.9457765,False,-1,Arica y Parinacota
cawfin1,White-bridled Finch,Melanodera melanodera,L3278917,Cordón Baquedano,2015-01-06,4.0,-53.3001074,-70.127449,False,-1,Magallanes
manshe,Manx Shearwater,Puffinus puffinus,L751332,Cabo de Hornos--Mar (Cape Horn at sea),2015-01-06,1.0,-56.078167,-66.6870117,False,-1,Magallanes
mallar3,Mallard,Anas platyrhynchos,L606195,Estero Catapilco--Desembocadura (Laguna Zapallar),2015-01-06,0.0,-32.6327613,-71.426518,False,1,Valparaíso
royalb1,Royal Albatross,Diomedea epomophora,L3194975,"Mar Argentino, Drake Passage",2015-01-06,1.0,-56.707634,-66.242935,True,-1,Magallanes
wanalb,Wandering Albatross,Diomedea exulans,L3194975,"Mar Argentino, Drake Passage",2015-01-06,3.0,-56.707634,-66.242935,True,-1,Magallanes
greshe,Great Shearwater,Ardenna gravis,L3194975,"Mar Argentino, Drake Passage",2015-01-06,2.0,-56.707634,-66.242935,True,-1,Magallanes
permar1,Peruvian Martin,Progne murphyi,L4313484,Valle del Río Lluta--Poconchile,2015-01-06,1.0,-18.4518884,-70.0663054,False,-1,Arica y Parinacota
blupet1,Blue Petrel,Halobaena caerulea,L3705847,At Sea - Drake Passage north,2015-01-06,2.0,-57.2345054,-66.1961889,True,-1,Magallanes
whcpin,White-cheeked Pintail,Anas bahamensis,L668852,Río Lluta--Desembocadura,2015-01-06,9.0,-18.4165392,-70.3224081,False,-1,Arica y Parinacota
leasan,Least Sandpiper,Calidris minutilla,L668852,Río Lluta--Desembocadura,2015-01-06,6.0,-18.4165392,-70.3224081,False,-1,Arica y Parinacota
grhgul,Gray-hooded Gull,Chroicocephalus cirrocephalus,L668852,Río Lluta--Desembocadura,2015-01-06,1.0,-18.4165392,-70.3224081,False,-1,Arica y Parinacota
kinpen1,King Penguin,Aptenodytes patagonicus,L1032990,Parque Pingüino Rey (Desembocadura Río Marazzi),2015-01-07,92.0,-53.4619671,-69.3105555,False,-1,Magallanes
commin1,Common Miner,Geositta cunicularia,L3274427,Ruta Y-71,2015-01-07,2.0,-53.367559,-70.396102,True,-1,Magallanes
semplo,Semipalmated Plover,Charadrius semipalmatus,L673642,Río Elqui--Desembocadura,2015-01-08,1.0,-29.8933968,-71.2727094,False,-1,Coquimbo
banswa,Bank Swallow,Riparia riparia,L2297155,Humedal el Membrillo,2015-01-08,1.0,-33.3443051,-71.6503978,False,-1,Valparaíso
mallar3,Mallard,Anas platyrhynchos,L1003469,Estero San Jerónimo--Desembocadura,2015-01-08,2.0,-33.3553642,-71.6547096,False,1,Valparaíso
spwpig3,Spot-winged Pigeon,Patagioenas maculosa,L570508,Putre,2015-01-08,73.0,-18.1964537,-69.5565677,False,-1,Arica y Parinacota
chithr1,Chiguanco Thrush,Turdus chiguanco,L570508,Putre,2015-01-08,31.0,-18.1964537,-69.5565677,False,-1,Arica y Parinacota
blupet1,Blue Petrel,Halobaena caerulea,L3336914,Drakes Passage - Ortelius/Cheesemans Ecology Safaris,2015-01-08,8.0,-56.9785,-64.652,True,-1,Magallanes
greshe,Great Shearwater,Ardenna gravis,L3336914,Drakes Passage - Ortelius/Cheesemans Ecology Safaris,2015-01-08,30.0,-56.9785,-64.652,True,-1,Magallanes
semplo,Semipalmated Plover,Charadrius semipalmatus,L3008464,Río Elqui,2015-01-09,2.0,-29.894113,-71.2601513,True,-1,Coquimbo
margod,Marbled Godwit,Limosa fedoa,L3008464,Río Elqui,2015-01-09,1.0,-29.894113,-71.2601513,True,-1,Coquimbo
helpip1,Hellmayr's Pipit,Anthus hellmayri,L1020637,Brisas del Sol,2015-01-09,2.0,-36.7704412,-73.0698287,False,-1,Bío-Bío
strwoo6,Striped Woodpecker,Dryobates lignarius,L3235679,MN Cueva del Milodón,2015-01-09,4.0,-51.5709587,-72.6113892,False,-1,Magallanes
impcor1,Imperial Cormorant,Leucocarbo atriceps,L492288,Pullao,2015-01-09,160.0,-42.4734897,-73.6786079,False,-1,Los Lagos
bwgdov1,Black-winged Ground Dove,Metriopelia melanoptera,L3278624,PCH,2015-01-09,60.0,-31.8258855,-70.5816114,True,-1,Coquimbo
semsan,Semipalmated Sandpiper,Calidris pusilla,L504553,SN Humedal Río Maipo--Desembocadura,2015-01-10,12.0,-33.6198013,-71.6275442,False,-1,Valparaíso
fragul,Franklin's Gull,Leucophaeus pipixcan,L504553,SN Humedal Río Maipo--Desembocadura,2015-01-10,8000.0,-33.6198013,-71.6275442,False,-1,Valparaíso
whshil1,White-sided Hillstar,Oreotrochilus leucopleurus,L820514,Quebrada de Macul,2015-01-10,3.0,-33.5007511,-70.508945,False,-1,Región Metropolitana de Santiago
chisku1,Chilean Skua,Stercorarius chilensis,L3663102,"Ferry from Puerto Williams to Punta Arenas, day I",2015-01-10,30.0,-54.848301,-69.7433138,True,-1,Magallanes
bkbalb,Black-browed Albatross,Thalassarche melanophris,L3663102,"Ferry from Puerto Williams to Punta Arenas, day I",2015-01-10,158.0,-54.848301,-69.7433138,True,-1,Magallanes
scrcow1,Screaming Cowbird,Molothrus rufoaxillaris,L3329407,San José de Los Lingues,2015-01-10,3.0,-34.5602762,-70.9139371,False,-1,Libertador General Bernardo O'Higgins
magwoo1,Magellanic Woodpecker,Campephilus magellanicus,L3287604,Reserva Nacional Llanquihue,2015-01-10,5.0,-41.3557098,-72.6372242,True,-1,Los Lagos
turvul,Turkey Vulture,Cathartes aura,L1583951,Bryn Coed,2015-01-11,1.0,-38.9413502,-72.9209523,True,-1,Araucanía
mallar3,Mallard,Anas platyrhynchos,L756355,Embalse Collahue,2015-01-11,2.0,-32.6516249,-71.216619,False,1,Valparaíso
strwoo6,Striped Woodpecker,Dryobates lignarius,L3286797,Melipeuco County,2015-01-11,8.0,-38.8568201,-71.3397217,True,-1,Araucanía
gyhsif1,Gray-hooded Sierra Finch,Phrygilus gayi,L572759,PN La Campana--Ocoa,2015-01-11,3.0,-32.9273735,-71.0856199,False,-1,Valparaíso
pomjae,Pomarine Jaeger,Stercorarius pomarinus,L1033571,Transbordador Pargua-Chacao,2015-01-11,1.0,-41.8143142,-73.4916687,False,-1,Los Lagos
magplo1,Magellanic Plover,Pluvianellus socialis,L1033151,Laguna Los Palos,2015-01-11,8.0,-52.7358759,-71.0616302,False,-1,Magallanes
sooshe,Sooty Shearwater,Ardenna grisea,L3300654,Tenaún,2015-01-12,6000.0,-42.3369761,-73.3593178,True,-1,Los Lagos
colplo1,Collared Plover,Charadrius collaris,L504553,SN Humedal Río Maipo--Desembocadura,2015-01-12,22.0,-33.6198013,-71.6275442,False,-1,Valparaíso
ticdor1,Ticking Doradito,Pseudocolopteryx citreola,L504553,SN Humedal Río Maipo--Desembocadura,2015-01-12,3.0,-33.6198013,-71.6275442,False,-1,Valparaíso
comter,Common Tern,Sterna hirundo,L861844,Humedal Urbano Cartagena,2015-01-12,15.0,-33.5350454,-71.6022348,False,-1,Valparaíso
santer1,Sandwich Tern,Thalasseus sandvicensis,L861844,Humedal Urbano Cartagena,2015-01-12,2.0,-33.5350454,-71.6022348,False,-1,Valparaíso
wanalb,Wandering Albatross,Diomedea exulans,L3461299,Sailing close to Cap Horn,2015-01-12,2.0,-56.0740539,-67.3894501,True,-1,Magallanes
gyhsif1,Gray-hooded Sierra Finch,Phrygilus gayi,L4246794,SN Islote Pájaros Niños,2015-01-12,3.0,-33.35961,-71.687204,False,-1,Valparaíso
mallar3,Mallard,Anas platyrhynchos,L1003469,Estero San Jerónimo--Desembocadura,2015-01-12,4.0,-33.3553642,-71.6547096,False,1,Valparaíso
hudgod,Hudsonian Godwit,Limosa haemastica,L1066157,Putemún,2015-01-13,4500.0,-42.419148,-73.7371015,False,-1,Los Lagos
punsni1,Puna Snipe,Gallinago andina,L904474,Volcán Aucanquilcha--Ladera oriente,2015-01-13,1.0,-21.2278219,-68.4001708,False,-1,Antofagasta
mallar3,Mallard,Anas platyrhynchos,L492313,Chullec,2015-01-13,1.0,-42.4678867,-73.5394174,False,1,Los Lagos
ruhgoo1,Ruddy-headed Goose,Chloephaga rubidiceps,L1775408,Río Santa María,2015-01-13,15.0,-53.6652763,-70.9582577,True,-1,Magallanes
stbbit1,Stripe-backed Bittern,Ixobrychus involucris,L607130,Lampa--Puente Negro Sur †,2015-01-13,3.0,-33.2853016,-70.8043528,False,-1,Región Metropolitana de Santiago
wepdov1,West Peruvian Dove,Zenaida meloda,L572339,Quintero,2015-01-13,2.0,-32.7744297,-71.5318537,False,-1,Valparaíso
whthaw1,White-throated Hawk,Buteo albigula,L3296572,Atacalco,2015-01-13,3.0,-36.8807191,-71.6289711,True,-1,Ñuble
bwgdov1,Black-winged Ground Dove,Metriopelia melanoptera,L677236,Parque Mahuida,2015-01-14,3.0,-33.458343,-70.5095994,False,-1,Región Metropolitana de Santiago
gyhsif1,Gray-hooded Sierra Finch,Phrygilus gayi,L677236,Parque Mahuida,2015-01-14,2.0,-33.458343,-70.5095994,False,-1,Región Metropolitana de Santiago
sooshe,Sooty Shearwater,Ardenna grisea,L1033571,Transbordador Pargua-Chacao,2015-01-14,10000.0,-41.8143142,-73.4916687,False,-1,Los Lagos
andduc1,Andean Duck,Oxyura ferruginea,L3219160,Maullin navigation to Quenuir,2015-01-14,1.0,-41.6144156,-73.5809326,True,-1,Los Lagos
wanalb,Wandering Albatross,Diomedea exulans,L3442710,Vavilov 2015-01-14 0647,2015-01-14,1.0,-56.18587,-65.00192,True,-1,Magallanes
blupet1,Blue Petrel,Halobaena caerulea,L3442710,Vavilov 2015-01-14 0647,2015-01-14,1.0,-56.18587,-65.00192,True,-1,Magallanes
royalb1,Royal Albatross,Diomedea epomophora,L3298937,Drake Passage--east of Cape Horn,2015-01-14,12.0,-55.966,-66.583,True,-1,Magallanes
gyhsif1,Gray-hooded Sierra Finch,Phrygilus gayi,L1147111,Farellones,2015-01-15,4.0,-33.3520394,-70.3129292,False,-1,Región Metropolitana de Santiago
redkno,Red Knot,Calidris canutus,L516521,Caulín,2015-01-15,63.0,-41.8259378,-73.6275078,False,-1,Los Lagos
ruhgoo1,Ruddy-headed Goose,Chloephaga rubidiceps,L1087903,MN Canquén Colorado,2015-01-16,107.0,-53.6514552,-70.9430552,False,-1,Magallanes
wanalb,Wandering Albatross,Diomedea exulans,L3883602,Vavilov 2015-01-16 1649,2015-01-16,1.0,-57.0040987,-66.5383918,True,-1,Magallanes
cappet,Cape Petrel,Daption capense,L3883602,Vavilov 2015-01-16 1649,2015-01-16,30.0,-57.0040987,-66.5383918,True,-1,Magallanes
blupet1,Blue Petrel,Halobaena caerulea,L3883602,Vavilov 2015-01-16 1649,2015-01-16,13.0,-57.0040987,-66.5383918,True,-1,Magallanes
batgod,Bar-tailed Godwit,Limosa lapponica,L3270845,Quetalmahue--oeste,2015-01-16,1.0,-41.8454962,-73.9995852,False,-1,Los Lagos
limalb1,Light-mantled Albatross,Phoebetria palpebrata,L3883601,Vavilov 2015-01-16 0856,2015-01-16,1.0,-55.9433542,-66.427366,True,-1,Magallanes
gyhsif1,Gray-hooded Sierra Finch,Phrygilus gayi,L688163,Camino a Farellones--entre Yerba Loca y Farellones,2015-01-16,0.0,-33.3495121,-70.3262329,False,-1,Región Metropolitana de Santiago
blkski,Black Skimmer,Rynchops niger,L504553,SN Humedal Río Maipo--Desembocadura,2015-01-17,1000.0,-33.6198013,-71.6275442,False,-1,Valparaíso
cthhue1,Chestnut-throated Huet-huet,Pteroptochos castaneus,L3077650,Bosque Nativo en Penco,2015-01-17,7.0,-36.7465873,-72.975322,True,-1,Bío-Bío
sooter1,Sooty Tern,Onychoprion fuscatus,L884715,Antofagasta--playa frente a Universidad,2015-01-17,1.0,-23.7022519,-70.4241979,False,-1,Antofagasta
macpen1,Macaroni Penguin,Eudyptes chrysolophus,L3454254,Vavilov 2015-01-17 IO 0723,2015-01-17,3.0,-59.25948,-66.77931,True,-1,Magallanes
blupet1,Blue Petrel,Halobaena caerulea,L3883603,Vavilov 2015-01-17 0644,2015-01-17,2.0,-59.1270589,-66.7655697,True,-1,Magallanes
gyhsif1,Gray-hooded Sierra Finch,Phrygilus gayi,L1103148,MN Isla Cachagua,2015-01-18,1.0,-32.585585,-71.4562798,False,-1,Valparaíso
leasan,Least Sandpiper,Calidris minutilla,L504553,SN Humedal Río Maipo--Desembocadura,2015-01-18,1.0,-33.6198013,-71.6275442,False,-1,Valparaíso
semplo,Semipalmated Plover,Charadrius semipalmatus,L673642,Río Elqui--Desembocadura,2015-01-18,1.0,-29.8933968,-71.2727094,False,-1,Coquimbo
margod,Marbled Godwit,Limosa fedoa,L673642,Río Elqui--Desembocadura,2015-01-18,1.0,-29.8933968,-71.2727094,False,-1,Coquimbo
leasan,Least Sandpiper,Calidris minutilla,L504553,SN Humedal Río Maipo--Desembocadura,2015-01-19,2.0,-33.6198013,-71.6275442,False,-1,Valparaíso
ticdor1,Ticking Doradito,Pseudocolopteryx citreola,L504553,SN Humedal Río Maipo--Desembocadura,2015-01-19,2.0,-33.6198013,-71.6275442,False,-1,Valparaíso
osprey,Osprey,Pandion haliaetus,L3305164,"Playa Chacaya, Antofagasta",2015-01-19,1.0,-22.965506,-70.3110516,True,-1,Antofagasta
gyhsif1,Gray-hooded Sierra Finch,Phrygilus gayi,L752313,Humedal de Mantagua,2015-01-19,2.0,-32.8853535,-71.5031433,True,-1,Valparaíso
mallar3,Mallard,Anas platyrhynchos,L606195,Estero Catapilco--Desembocadura (Laguna Zapallar),2015-01-19,0.0,-32.6327613,-71.426518,False,1,Valparaíso
humpen1,Humboldt Penguin,Spheniscus humboldti,L572712,Cachagua,2015-01-19,200.0,-32.583777,-71.4558506,False,-1,Valparaíso
gyhsif1,Gray-hooded Sierra Finch,Phrygilus gayi,L1030674,Camino Valle Nevado,2015-01-20,2.0,-33.3700689,-70.2803028,False,-1,Región Metropolitana de Santiago
soater1,South American Tern,Sterna hirundinacea,L3105956,Ruta 9 Km. 16 sur,2015-01-20,1200.0,-53.3058216,-70.9348905,True,-1,Magallanes
margod,Marbled Godwit,Limosa fedoa,L673642,Río Elqui--Desembocadura,2015-01-20,1.0,-29.8933968,-71.2727094,False,-1,Coquimbo
gramin1,Grayish Miner,Geositta maritima,L3309699,Reserva Narural La Chimba,2015-01-20,8.0,-23.5420649,-70.3619653,True,-1,Antofagasta
y00678,Crested Caracara,Caracara plancus,L3168237,Caleta Totoral (Bahia protegida),2015-01-21,1.0,-27.810076,-71.088179,True,-1,Atacama
stbbit1,Stripe-backed Bittern,Ixobrychus involucris,L512176,Pichilemu--Laguna Petrel (Humedal Urbano),2015-01-21,2.0,-34.3824693,-71.9981289,False,-1,Libertador General Bernardo O'Higgins
whcpin,White-cheeked Pintail,Anas bahamensis,L516540,Río Huasco--Desembocadura,2015-01-21,4.0,-28.4481664,-71.2002039,False,-1,Atacama
rubsee2,Rufous-bellied Seedsnipe,Attagis gayi,L638139,Piedra Numerada,2015-01-21,4.0,-33.2972472,-70.2170563,False,-1,Región Metropolitana de Santiago
margod,Marbled Godwit,Limosa fedoa,L673642,Río Elqui--Desembocadura,2015-01-21,1.0,-29.8933968,-71.2727094,False,-1,Coquimbo
mallar3,Mallard,Anas platyrhynchos,L606195,Estero Catapilco--Desembocadura (Laguna Zapallar),2015-01-24,5.0,-32.6327613,-71.426518,False,1,Valparaíso
sander,Sanderling,Calidris alba,L593521,RN El Yali--Laguna Albufera,2015-01-24,500.0,-33.7592408,-71.7343712,False,-1,Valparaíso
burpar,Burrowing Parakeet,Cyanoliseus patagonus,L3029858,Mi casa,2015-01-24,70.0,-29.8862066,-71.2381947,True,-1,Coquimbo
amgplo,American Golden-Plover,Pluvialis dominica,L668852,Río Lluta--Desembocadura,2015-01-24,14.0,-18.4165392,-70.3224081,False,-1,Arica y Parinacota
semplo,Semipalmated Plover,Charadrius semipalmatus,L668852,Río Lluta--Desembocadura,2015-01-24,35.0,-18.4165392,-70.3224081,False,-1,Arica y Parinacota
rebtro,Red-billed Tropicbird,Phaethon aethereus,L1108905,RN Pingüino de Humboldt--Isla Chañaral,2015-01-24,1.0,-29.0360601,-71.5790176,False,-1,Atacama
gyhsif1,Gray-hooded Sierra Finch,Phrygilus gayi,L690096,SN Yerba Loca [usar hotspots específicos],2015-01-25,22.0,-33.303847,-70.3186798,False,-1,Región Metropolitana de Santiago
whtcar1,White-throated Caracara,Daptrius albogularis,L2418503,PN Torres del Paine--Sendero entre porterías,2015-01-25,2.0,-51.000361,-72.7882004,False,-1,Magallanes
spetyr1,Spectacled Tyrant,Hymenops perspicillatus,L2418503,PN Torres del Paine--Sendero entre porterías,2015-01-25,3.0,-51.000361,-72.7882004,False,-1,Magallanes
semplo,Semipalmated Plover,Charadrius semipalmatus,L604818,SN Humedal Salinas de Pullally y Dunas de Longotoma--Desembocadura,2015-01-25,3.0,-32.4101103,-71.4107895,False,-1,Valparaíso
commin1,Common Miner,Geositta cunicularia,L604818,SN Humedal Salinas de Pullally y Dunas de Longotoma--Desembocadura,2015-01-25,3.0,-32.4101103,-71.4107895,False,-1,Valparaíso
snoshe2,Snowy Sheathbill,Chionis albus,L3239168,MN Los Pingüinos--Isla Marta,2015-01-25,3.0,-52.8471046,-70.5799913,False,-1,Magallanes
whcalb1,White-capped Albatross,Thalassarche cauta,L504840,Caleta Chañaral,2015-01-25,1.0,-29.0776256,-71.4902687,False,-1,Atacama
gyhsif1,Gray-hooded Sierra Finch,Phrygilus gayi,L4606505,Humedal Córdova,2015-01-26,2.0,-33.4453317,-71.6785508,False,-1,Valparaíso
mallar3,Mallard,Anas platyrhynchos,L606195,Estero Catapilco--Desembocadura (Laguna Zapallar),2015-01-26,25.0,-32.6327613,-71.426518,False,1,Valparaíso
royalb1,Royal Albatross,Diomedea epomophora,L3883609,Vavilov 2015-01-26 0648,2015-01-26,2.0,-56.7523101,-66.9826073,True,-1,Magallanes
wanalb,Wandering Albatross,Diomedea exulans,L3883609,Vavilov 2015-01-26 0648,2015-01-26,5.0,-56.7523101,-66.9826073,True,-1,Magallanes
greshe,Great Shearwater,Ardenna gravis,L3883609,Vavilov 2015-01-26 0648,2015-01-26,2.0,-56.7523101,-66.9826073,True,-1,Magallanes
bkbalb,Black-browed Albatross,Thalassarche melanophris,L3486520,Vavilov 2015-01-27 2104,2015-01-27,165.0,-54.91502,-67.27734,True,-1,Magallanes
impcor1,Imperial Cormorant,Leucocarbo atriceps,L3486520,Vavilov 2015-01-27 2104,2015-01-27,2070.0,-54.91502,-67.27734,True,-1,Magallanes
magtap1,Magellanic Tapaculo,Scytalopus magellanicus,L3335964,"Quirihue, N-160",2015-01-27,4.0,-36.28702,-72.53099,True,-1,Ñuble
shbmin1,Short-billed Miner,Geositta antarctica,L682344,PN Torres del Paine,2015-01-27,1.0,-50.9791824,-72.5008392,True,-1,Magallanes
gyhsif1,Gray-hooded Sierra Finch,Phrygilus gayi,L4026975,Loma Linda,2015-01-27,3.0,-33.4357636,-71.6771027,False,-1,Valparaíso
osprey,Osprey,Pandion haliaetus,L604811,SN Humedales de Tongoy--Estero Pachingo Desembocadura,2015-01-28,1.0,-30.3052065,-71.5723658,False,-1,Coquimbo
blupet1,Blue Petrel,Halobaena caerulea,L3492149,Vavilov 2015-01-28 1432,2015-01-28,1.0,-58.01958,-65.44122,True,-1,Magallanes
elctin1,Elegant Crested-Tinamou,Eudromia elegans,L3340351,Chile Chico--aeródromo,2015-01-28,3.0,-46.5824997,-71.69034,False,-1,Aisén del General Carlos Ibáñez del Campo
wanalb,Wandering Albatross,Diomedea exulans,L3194975,"Mar Argentino, Drake Passage",2015-01-28,1.0,-56.707634,-66.242935,True,-1,Magallanes
whcpin,White-cheeked Pintail,Anas bahamensis,L516540,Río Huasco--Desembocadura,2015-01-29,7.0,-28.4481664,-71.2002039,False,-1,Atacama
stbbit1,Stripe-backed Bittern,Ixobrychus involucris,L516540,Río Huasco--Desembocadura,2015-01-29,1.0,-28.4481664,-71.2002039,False,-1,Atacama
y00678,Crested Caracara,Caracara plancus,L516540,Río Huasco--Desembocadura,2015-01-29,2.0,-28.4481664,-71.2002039,False,-1,Atacama
chisku1,Chilean Skua,Stercorarius chilensis,L3307012,Camino a perales,2015-01-29,2.0,-51.556612,-72.7883203,True,-1,Magallanes
limalb1,Light-mantled Albatross,Phoebetria palpebrata,L3194975,"Mar Argentino, Drake Passage",2015-01-29,2.0,-56.707634,-66.242935,True,-1,Magallanes
bbspet1,Black-bellied Storm-Petrel,Fregetta tropica,L3194975,"Mar Argentino, Drake Passage",2015-01-29,5.0,-56.707634,-66.242935,True,-1,Magallanes
gragoo,Graylag Goose,Anser anser,L606195,Estero Catapilco--Desembocadura (Laguna Zapallar),2015-01-30,0.0,-32.6327613,-71.426518,False,1,Valparaíso
musduc,Muscovy Duck,Cairina moschata,L606195,Estero Catapilco--Desembocadura (Laguna Zapallar),2015-01-30,1.0,-32.6327613,-71.426518,False,1,Valparaíso
mallar3,Mallard,Anas platyrhynchos,L606195,Estero Catapilco--Desembocadura (Laguna Zapallar),2015-01-30,0.0,-32.6327613,-71.426518,False,1,Valparaíso
surfbi,Surfbird,Calidris virgata,L572712,Cachagua,2015-01-30,62.0,-32.583777,-71.4558506,False,-1,Valparaíso
semplo,Semipalmated Plover,Charadrius semipalmatus,L636004,Estero Tongoy--Desembocadura,2015-01-30,4.0,-30.25497,-71.49359,False,-1,Coquimbo
santer1,Sandwich Tern,Thalasseus sandvicensis,L636004,Estero Tongoy--Desembocadura,2015-01-30,1.0,-30.25497,-71.49359,False,-1,Coquimbo
scrcow1,Screaming Cowbird,Molothrus rufoaxillaris,L2867775,La Paloma,2015-01-31,1.0,-34.5576149,-70.952239,False,-1,Libertador General Bernardo O'Higgins
bwgdov1,Black-winged Ground Dove,Metriopelia melanoptera,L1397266,Lagunillas,2015-01-31,50.0,-33.744772,-70.8998929,True,-1,Región Metropolitana de Santiago
rubmin1,Rufous-banded Miner,Geositta rufipennis,L1397266,Lagunillas,2015-01-31,2.0,-33.744772,-70.8998929,True,-1,Región Metropolitana de Santiago
margod,Marbled Godwit,Limosa fedoa,L602292,Desembocadura Río Elqui,2015-01-31,1.0,-29.8940107,-71.2723231,True,-1,Coquimbo
osprey,Osprey,Pandion haliaetus,L3338819,Horizontes del Mar,2015-02-01,1.0,-33.9182745,-71.7907378,False,-1,Valparaíso
lesrhe2,Lesser Rhea,Rhea pennata,L3346149,Carretera P. Natales - P. Arenas,2015-02-01,55.0,-51.7716641,-72.2114182,True,-1,Magallanes
burpar,Burrowing Parakeet,Cyanoliseus patagonus,L2811168,Quebrada de Talca,2015-02-01,17.0,-30.0100809,-71.0369968,False,-1,Coquimbo
moucar1,Mountain Caracara,Daptrius megalopterus,L3336488,Laguna el Huemul - Shangri La,2015-02-01,1.0,-36.8309968,-71.5486336,True,-1,Ñuble
gyhsif1,Gray-hooded Sierra Finch,Phrygilus gayi,L1030452,Camino a La Parva--Vegas y Pastizales,2015-02-02,5.0,-33.3442243,-70.299046,False,-1,Región Metropolitana de Santiago
chifla1,Chilean Flamingo,Phoenicopterus chilensis,L1140459,RN El Yali--Laguna Matanzas,2015-02-02,29.0,-33.756208,-71.6919708,False,-1,Valparaíso
bkbplo,Black-bellied Plover,Pluvialis squatarola,L516551,Río Mataquito--Desembocadura,2015-02-02,40.0,-34.9909099,-72.182579,False,-1,Maule
santer1,Sandwich Tern,Thalasseus sandvicensis,L636004,Estero Tongoy--Desembocadura,2015-02-02,1.0,-30.25497,-71.49359,False,-1,Coquimbo
rubmin1,Rufous-banded Miner,Geositta rufipennis,L1259326,PN Torres del Paine--Guardería Laguna Amarga,2015-02-03,3.0,-50.9794594,-72.8004205,False,-1,Magallanes
colplo1,Collared Plover,Charadrius collaris,L5054215,Villarrica--Humedal Urbano Mallolafken,2015-02-03,1.0,-39.278091,-72.2206329,False,-1,Araucanía
semplo,Semipalmated Plover,Charadrius semipalmatus,L636004,Estero Tongoy--Desembocadura,2015-02-04,1.0,-30.25497,-71.49359,False,-1,Coquimbo
osprey,Osprey,Pandion haliaetus,L636004,Estero Tongoy--Desembocadura,2015-02-04,1.0,-30.25497,-71.49359,False,-1,Coquimbo
cingrt1,Cinereous Ground-Tyrant,Muscisaxicola cinereus,L3344303,La Colorada,2015-02-04,2.0,-30.2608465,-70.0011063,True,-1,Coquimbo
blasis1,Black Siskin,Spinus atratus,L3344303,La Colorada,2015-02-04,4.0,-30.2608465,-70.0011063,True,-1,Coquimbo
soasni3,Magellanic Snipe,Gallinago magellanica,L594542,Embalse El Yeso--Vegas superiores,2015-02-04,1.0,-33.6250545,-70.0251281,False,-1,Región Metropolitana de Santiago
willet1,Willet,Tringa semipalmata,L808286,Cáhuil--Pueblo,2015-02-04,1.0,-34.4781377,-72.0157046,False,-1,Libertador General Bernardo O'Higgins
bbspet1,Black-bellied Storm-Petrel,Fregetta tropica,L3372047,PAL-LTER 2-5-2015 5,2015-02-05,1.0,-57.7566667,-64.1013889,True,-1,Magallanes
mallar3,Mallard,Anas platyrhynchos,L3436087,"Puente Libertad, Viña del Mar",2015-02-05,1.0,-33.0226978,-71.5518308,True,1,Valparaíso
soppet1,Soft-plumaged Petrel,Pterodroma mollis,L3353958,PAL-LTER 2-5-2015 3,2015-02-05,1.0,-58.0411111,-64.0072222,True,-1,Magallanes
dovpri1,Antarctic Prion,Pachyptila desolata,L3353958,PAL-LTER 2-5-2015 3,2015-02-05,3.0,-58.0411111,-64.0072222,True,-1,Magallanes
magpen1,Magellanic Penguin,Spheniscus magellanicus,L3438732,MN Los Pingüinos--Isla Magdalena,2015-02-05,1500.0,-52.9202367,-70.5759573,False,-1,Magallanes
rocpen1,Southern Rockhopper Penguin,Eudyptes chrysocome,L3441986,PAL LTER 2-5-2015 5,2015-02-05,6.0,-58.0833333,-63.9833333,True,-1,Magallanes
gyhalb,Gray-headed Albatross,Thalassarche chrysostoma,L3441986,PAL LTER 2-5-2015 5,2015-02-05,2.0,-58.0833333,-63.9833333,True,-1,Magallanes
blupet1,Blue Petrel,Halobaena caerulea,L3441981,PAL LTER 2-5-2015 4,2015-02-05,1.0,-58.2333333,-63.95,True,-1,Magallanes
gramin1,Grayish Miner,Geositta maritima,L3309699,Reserva Narural La Chimba,2015-02-05,6.0,-23.5420649,-70.3619653,True,-1,Antofagasta
magplo1,Magellanic Plover,Pluvianellus socialis,L1090622,Laguna los Palos,2015-02-05,6.0,-52.7289114,-71.0556221,True,-1,Magallanes
whshil1,White-sided Hillstar,Oreotrochilus leucopleurus,L3436196,"Parque Nacional Queulat, sendero Ventisquero Colgante",2015-02-05,1.0,-44.3925796,-72.562294,True,-1,Aisén del General Carlos Ibáñez del Campo
siltea1,Silver Teal,Spatula versicolor,L3438685,Laguna Inia,2015-02-06,15.0,-52.6850529,-70.9469175,False,-1,Magallanes
whcpin,White-cheeked Pintail,Anas bahamensis,L3438685,Laguna Inia,2015-02-06,2.0,-52.6850529,-70.9469175,False,-1,Magallanes
ashgoo1,Ashy-headed Goose,Chloephaga poliocephala,L3349701,censo cnaa canal señoret y fiodo eberhard,2015-02-06,708.0,-51.7163941,-72.5291634,True,-1,Magallanes
speduc2,Spectacled Duck,Speculanas specularis,L3349701,censo cnaa canal señoret y fiodo eberhard,2015-02-06,49.0,-51.7163941,-72.5291634,True,-1,Magallanes
chiwig1,Chiloe Wigeon,Mareca sibilatrix,L3349701,censo cnaa canal señoret y fiodo eberhard,2015-02-06,321.0,-51.7163941,-72.5291634,True,-1,Magallanes
gyfcin1,Gray-flanked Cinclodes,Cinclodes oustaleti,L3349701,censo cnaa canal señoret y fiodo eberhard,2015-02-06,4.0,-51.7163941,-72.5291634,True,-1,Magallanes
dolgul2,Dolphin Gull,Leucophaeus scoresbii,L1030749,PN Torres del Paine--Río Serrano,2015-02-07,2.0,-51.2324726,-72.9907608,False,-1,Magallanes
gyhsif1,Gray-hooded Sierra Finch,Phrygilus gayi,L594542,Embalse El Yeso--Vegas superiores,2015-02-07,4.0,-33.6250545,-70.0251281,False,-1,Región Metropolitana de Santiago
whbsee2,White-bellied Seedsnipe,Attagis malouinus,L1366064,"Cerro Cinchao, Coyhaique",2015-02-07,4.0,-45.5331964,-71.9895553,True,-1,Aisén del General Carlos Ibáñez del Campo
hudgod,Hudsonian Godwit,Limosa haemastica,L879368,Lago Budi--Deume,2015-02-07,96.0,-38.8676136,-73.3436966,False,-1,Araucanía
whwcin1,White-winged Cinclodes,Cinclodes atacamensis,L1040783,Embalse La Laguna,2015-02-07,2.0,-30.2187285,-70.0371552,False,-1,Coquimbo
blasis1,Black Siskin,Spinus atratus,L1040783,Embalse La Laguna,2015-02-07,3.0,-30.2187285,-70.0371552,False,-1,Coquimbo
bulshe,Buller's Shearwater,Ardenna bulleri,L1108905,RN Pingüino de Humboldt--Isla Chañaral,2015-02-07,3.0,-29.0360601,-71.5790176,False,-1,Atacama
kinpen1,King Penguin,Aptenodytes patagonicus,L1032990,Parque Pingüino Rey (Desembocadura Río Marazzi),2015-02-07,80.0,-53.4619671,-69.3105555,False,-1,Magallanes
whttap1,White-throated Tapaculo,Scelorchilus albicollis,L2715501,Camping El Bronce,2015-02-07,1.0,-34.5278598,-71.9889021,True,-1,Libertador General Bernardo O'Higgins
semplo,Semipalmated Plover,Charadrius semipalmatus,L571550,Puerto Saavedra,2015-02-07,2.0,-38.7925099,-73.3959246,False,-1,Araucanía
willet1,Willet,Tringa semipalmata,L571550,Puerto Saavedra,2015-02-07,2.0,-38.7925099,-73.3959246,False,-1,Araucanía
stisan,Stilt Sandpiper,Calidris himantopus,L668852,Río Lluta--Desembocadura,2015-02-07,1.0,-18.4165392,-70.3224081,False,-1,Arica y Parinacota
norgip1,Northern Giant-Petrel,Macronectes halli,L3450958,"-55.5147 S, -66.2888 W heading NNW to Beagle Channel",2015-02-08,6.0,-55.5147,-66.2888,True,-1,Magallanes
greshe,Great Shearwater,Ardenna gravis,L3450958,"-55.5147 S, -66.2888 W heading NNW to Beagle Channel",2015-02-08,1.0,-55.5147,-66.2888,True,-1,Magallanes
sooshe,Sooty Shearwater,Ardenna grisea,L3450958,"-55.5147 S, -66.2888 W heading NNW to Beagle Channel",2015-02-08,125.0,-55.5147,-66.2888,True,-1,Magallanes
chisku1,Chilean Skua,Stercorarius chilensis,L3353914,PAL-LTER 2-8-2015,2015-02-08,200.0,-53.0653711,-70.7258606,True,-1,Magallanes
cosswa1,Coscoroba Swan,Coscoroba coscoroba,L604466,Río Choapa--Desembocadura,2015-02-08,73.0,-31.6204244,-71.5592766,False,-1,Coquimbo
pattyr2,Patagonian Tyrant,Colorhamphus parvirostris,L3154749,PN La Campana,2015-02-08,1.0,-32.9843608,-71.111927,False,-1,Valparaíso
saffin,Saffron Finch,Sicalis flaveola,L1074030,Pucón--La Poza,2015-02-08,6.0,-39.2775731,-71.979914,False,-1,Araucanía
whwcin1,White-winged Cinclodes,Cinclodes atacamensis,L3226371,La Colorada,2015-02-09,3.0,-30.2615738,-69.9952985,True,-1,Coquimbo
cingrt1,Cinereous Ground-Tyrant,Muscisaxicola cinereus,L3226371,La Colorada,2015-02-09,3.0,-30.2615738,-69.9952985,True,-1,Coquimbo
blasis1,Black Siskin,Spinus atratus,L3226371,La Colorada,2015-02-09,6.0,-30.2615738,-69.9952985,True,-1,Coquimbo
blbgra1,Blue-black Grassquit,Volatinia jacarina,L3226371,La Colorada,2015-02-09,1.0,-30.2615738,-69.9952985,True,-1,Coquimbo
ticdor1,Ticking Doradito,Pseudocolopteryx citreola,L504553,SN Humedal Río Maipo--Desembocadura,2015-02-09,1.0,-33.6198013,-71.6275442,False,-1,Valparaíso
blacin1,Blackish Cinclodes,Cinclodes antarcticus,L3461016,"Faro Les Éclaireurs, Beagle Canal",2015-02-09,3.0,-54.872914,-68.094687,True,-1,Magallanes
andcon1,Andean Condor,Vultur gryphus,L5074013,Hwy 9 Condor Spot,2015-02-09,45.0,-51.2993263,-72.4177551,True,-1,Magallanes
aplfal,Aplomado Falcon,Falco femoralis,L11856641,San Jose,2015-02-09,1.0,-39.5132331,-72.9595463,True,-1,Los Ríos
ameoys,American Oystercatcher,Haematopus palliatus,L2887320,Parque Chabunco,2015-02-10,1.0,-52.9911014,-70.8164549,False,-1,Magallanes
rebtro,Red-billed Tropicbird,Phaethon aethereus,L1108905,RN Pingüino de Humboldt--Isla Chañaral,2015-02-10,1.0,-29.0360601,-71.5790176,False,-1,Atacama
magplo1,Magellanic Plover,Pluvianellus socialis,L1033151,Laguna Los Palos,2015-02-10,5.0,-52.7358759,-71.0616302,False,-1,Magallanes
shbmin1,Short-billed Miner,Geositta antarctica,L1033151,Laguna Los Palos,2015-02-10,11.0,-52.7358759,-71.0616302,False,-1,Magallanes
royalb1,Royal Albatross,Diomedea epomophora,L3462196,Drake Passage a,2015-02-10,3.0,-56.27093,-66.26169,True,-1,Magallanes
wanalb,Wandering Albatross,Diomedea exulans,L3462196,Drake Passage a,2015-02-10,1.0,-56.27093,-66.26169,True,-1,Magallanes
impcor1,Imperial Cormorant,Leucocarbo atriceps,L717821,Punta Arenas--Muelle viejo,2015-02-11,350.0,-53.1660704,-70.9000111,False,-1,Magallanes
rubmin1,Rufous-banded Miner,Geositta rufipennis,L1259326,PN Torres del Paine--Guardería Laguna Amarga,2015-02-11,1.0,-50.9794594,-72.8004205,False,-1,Magallanes
whcpin,White-cheeked Pintail,Anas bahamensis,L904625,Río Loa--Desembocadura,2015-02-11,3.0,-21.4292013,-70.0585485,False,-1,Tarapacá
robpoc1,Rosy-billed Pochard,Netta peposaca,L1414655,Embalse Convento Viejo,2015-02-11,2.0,-34.7565944,-71.1407656,True,-1,Libertador General Bernardo O'Higgins
pibgre,Pied-billed Grebe,Podilymbus podiceps,L1414655,Embalse Convento Viejo,2015-02-11,11.0,-34.7565944,-71.1407656,True,-1,Libertador General Bernardo O'Higgins
rucdot1,Rufous-chested Dotterel,Charadrius modestus,L504548,Estero Mantagua,2015-02-12,1.0,-32.8844165,-71.5067482,False,-1,Valparaíso
ruhgoo1,Ruddy-headed Goose,Chloephaga rubidiceps,L1087903,MN Canquén Colorado,2015-02-12,16.0,-53.6514552,-70.9430552,False,-1,Magallanes
gyhsif1,Gray-hooded Sierra Finch,Phrygilus gayi,L677238,Valle Nevado,2015-02-12,4.0,-33.3564128,-70.2490819,False,-1,Región Metropolitana de Santiago
chisku1,Chilean Skua,Stercorarius chilensis,L1033522,Fuerte Bulnes,2015-02-12,26.0,-53.6303509,-70.9171343,False,-1,Magallanes
bkbalb,Black-browed Albatross,Thalassarche melanophris,L1033522,Fuerte Bulnes,2015-02-12,150.0,-53.6303509,-70.9171343,False,-1,Magallanes
osprey,Osprey,Pandion haliaetus,L636004,Estero Tongoy--Desembocadura,2015-02-12,1.0,-30.25497,-71.49359,False,-1,Coquimbo
whfibi,White-faced Ibis,Plegadis chihi,L3357480,Bucalemu--Humedal,2015-02-12,141.0,-34.6513558,-72.0031285,False,-1,Libertador General Bernardo O'Higgins
seacin1,Seaside Cinclodes,Cinclodes nigrofumosus,L632248,Punta Choros,2015-02-12,16.0,-29.2519574,-71.4530182,False,-1,Coquimbo
semplo,Semipalmated Plover,Charadrius semipalmatus,L636004,Estero Tongoy--Desembocadura,2015-02-12,3.0,-30.25497,-71.49359,False,-1,Coquimbo
santer1,Sandwich Tern,Thalasseus sandvicensis,L636004,Estero Tongoy--Desembocadura,2015-02-12,1.0,-30.25497,-71.49359,False,-1,Coquimbo
eleter1,Elegant Tern,Thalasseus elegans,L856481,Río Mehuin--Estuario (Puente negro),2015-02-13,314.0,-39.4379579,-73.1983316,False,-1,Los Ríos
gyhsif1,Gray-hooded Sierra Finch,Phrygilus gayi,L594542,Embalse El Yeso--Vegas superiores,2015-02-13,15.0,-33.6250545,-70.0251281,False,-1,Región Metropolitana de Santiago
redpha1,Red Phalarope,Phalaropus fulicarius,L570521,Puerto Natales,2015-02-13,1.0,-51.729899,-72.4982,False,-1,Magallanes
aplfal,Aplomado Falcon,Falco femoralis,L593521,RN El Yali--Laguna Albufera,2015-02-13,3.0,-33.7592408,-71.7343712,False,-1,Valparaíso
moupar2,Mountain Parakeet,Psilopsiagon aurifrons,L798238,Valle del Yeso (Cerca de las Ruinas),2015-02-13,15.0,-33.6803094,-70.0974834,True,-1,Región Metropolitana de Santiago
whwcin1,White-winged Cinclodes,Cinclodes atacamensis,L3226371,La Colorada,2015-02-13,4.0,-30.2615738,-69.9952985,True,-1,Coquimbo
cingrt1,Cinereous Ground-Tyrant,Muscisaxicola cinereus,L3226371,La Colorada,2015-02-13,6.0,-30.2615738,-69.9952985,True,-1,Coquimbo
blasis1,Black Siskin,Spinus atratus,L3226371,La Colorada,2015-02-13,5.0,-30.2615738,-69.9952985,True,-1,Coquimbo
ruhgoo1,Ruddy-headed Goose,Chloephaga rubidiceps,L3442235,Coastal Trail from Rio Santa Maria to Base of Mount Tarn,2015-02-13,33.0,-53.676807,-70.9751987,True,-1,Magallanes
parjae,Parasitic Jaeger,Stercorarius parasiticus,L3457736,"-32.9461x-71.6220 - Feb 14, 2015, 19:28",2015-02-14,10.0,-32.946095,-71.622025,True,-1,Valparaíso
gyhsif1,Gray-hooded Sierra Finch,Phrygilus gayi,L594542,Embalse El Yeso--Vegas superiores,2015-02-14,11.0,-33.6250545,-70.0251281,False,-1,Región Metropolitana de Santiago
slccoo1,Slate-colored Coot,Fulica ardesiaca,L2978512,Embalse Conchi,2015-02-14,662.0,-22.0013101,-68.6109495,False,-1,Antofagasta
amgplo,American Golden-Plover,Pluvialis dominica,L2978512,Embalse Conchi,2015-02-14,13.0,-22.0013101,-68.6109495,False,-1,Antofagasta
rubmin1,Rufous-banded Miner,Geositta rufipennis,L626043,Tapera,2015-02-14,1.0,-44.6541537,-71.6717577,True,-1,Aisén del General Carlos Ibáñez del Campo
magplo1,Magellanic Plover,Pluvianellus socialis,L1033151,Laguna Los Palos,2015-02-14,7.0,-52.7358759,-71.0616302,False,-1,Magallanes
soasni3,Magellanic Snipe,Gallinago magellanica,L504553,SN Humedal Río Maipo--Desembocadura,2015-02-14,6.0,-33.6198013,-71.6275442,False,-1,Valparaíso
sabgul,Sabine's Gull,Xema sabini,L570161,Valparaíso--Pelágico,2015-02-14,1.0,-33.0008897,-71.9479179,False,-1,Valparaíso
salalb1,Salvin's Albatross,Thalassarche salvini,L570161,Valparaíso--Pelágico,2015-02-14,120.0,-33.0008897,-71.9479179,False,-1,Valparaíso
shyalb2,Chatham Albatross,Thalassarche eremita,L570161,Valparaíso--Pelágico,2015-02-14,1.0,-33.0008897,-71.9479179,False,-1,Valparaíso
jufpet,Juan Fernandez Petrel,Pterodroma externa,L3458022,Feb15th-7,2015-02-15,52.0,-39.6873921,-74.5436096,True,-1,Los Ríos
stepet,Stejneger's Petrel,Pterodroma longirostris,L3458022,Feb15th-7,2015-02-15,6.0,-39.6873921,-74.5436096,True,-1,Los Ríos
salalb1,Salvin's Albatross,Thalassarche salvini,L3457959,Feb15th-6,2015-02-15,2.0,-39.3611301,-74.5106506,True,-1,Los Ríos
gybsee1,Gray-breasted Seedsnipe,Thinocorus orbignyianus,L3401193,Corrales,2015-02-15,25.0,-30.189238,-69.9133042,False,-1,Coquimbo
royalb1,Royal Albatross,Diomedea epomophora,L3457951,Feb15th-5,2015-02-15,3.0,-39.0304214,-74.3856812,True,-1,Bío-Bío
whwcin1,White-winged Cinclodes,Cinclodes atacamensis,L3401210,La Colorada,2015-02-15,2.0,-30.2612148,-69.9948286,False,-1,Coquimbo
cingrt1,Cinereous Ground-Tyrant,Muscisaxicola cinereus,L3401210,La Colorada,2015-02-15,6.0,-30.2612148,-69.9948286,False,-1,Coquimbo
blasis1,Black Siskin,Spinus atratus,L3401210,La Colorada,2015-02-15,14.0,-30.2612148,-69.9948286,False,-1,Coquimbo
rngtyr1,Rufous-naped Ground-Tyrant,Muscisaxicola rufivertex,L3450147,Playa La Virgen,2015-02-15,2.0,-27.3629443,-70.9580112,False,-1,Atacama
pedpet1,Peruvian Diving-Petrel,Pelecanoides garnotii,L3457783,Feb15th-1,2015-02-15,1.0,-36.4447796,-74.0629578,True,-1,Bío-Bío
comgal1,Common Gallinule,Gallinula galeata,L504549,Punta Teatinos--Laguna Saladita,2015-02-15,1.0,-29.8220854,-71.2886524,False,-1,Coquimbo
pumstp1,Pincoya Storm-Petrel,Oceanites pincoyae,L3459806,Golfo de Corcovado,2015-02-16,9.0,-42.4179145,-72.9574585,True,-1,Los Lagos
relcor1,Red-legged Cormorant,Poikilocarbo gaimardi,L3393589,Pilolkura,2015-02-16,200.0,-39.672917,-73.353667,True,-1,Los Ríos
rngtyr1,Rufous-naped Ground-Tyrant,Muscisaxicola rufivertex,L3451534,Playa Chorrillos,2015-02-16,1.0,-27.2092454,-70.9503898,False,-1,Atacama
gyhsif1,Gray-hooded Sierra Finch,Phrygilus gayi,L3452030,PN Pan de Azúcar--Las Lomitas,2015-02-16,2.0,-26.009687,-70.605339,False,-1,Antofagasta
belgul,Belcher's Gull,Larus belcheri,L3399402,Islote El Apolillado,2015-02-16,2.0,-29.2121105,-71.4866638,True,-1,Coquimbo
semplo,Semipalmated Plover,Charadrius semipalmatus,L1087750,Calderilla,2015-02-16,14.0,-27.0909184,-70.85289,False,-1,Atacama
semsan,Semipalmated Sandpiper,Calidris pusilla,L1087750,Calderilla,2015-02-16,28.0,-27.0909184,-70.85289,False,-1,Atacama
rebtro,Red-billed Tropicbird,Phaethon aethereus,L504840,Caleta Chañaral,2015-02-16,1.0,-29.0776256,-71.4902687,False,-1,Atacama
hudgod,Hudsonian Godwit,Limosa haemastica,L512176,Pichilemu--Laguna Petrel (Humedal Urbano),2015-02-16,30.0,-34.3824693,-71.9981289,False,-1,Libertador General Bernardo O'Higgins
bcnher,Black-crowned Night-Heron,Nycticorax nycticorax,L3481561,Parque Bicentenario de Vitacura (no contar cisnes),2015-02-17,1.0,-33.3980197,-70.6022,False,-1,Región Metropolitana de Santiago
wanalb,Wandering Albatross,Diomedea exulans,L3459894,Feb17th-8,2015-02-17,2.0,-47.85,-76.0,True,-1,Aisén del General Carlos Ibáñez del Campo
stepet,Stejneger's Petrel,Pterodroma longirostris,L3459894,Feb17th-8,2015-02-17,8.0,-47.85,-76.0,True,-1,Aisén del General Carlos Ibáñez del Campo
gybstp1,Gray-backed Storm-Petrel,Garrodia nereis,L3459903,Feb17th-7,2015-02-17,1.0,-47.3976675,-76.0267639,True,-1,Aisén del General Carlos Ibáñez del Campo
bbspet1,Black-bellied Storm-Petrel,Fregetta tropica,L2432281,Drake Passage,2015-02-17,2.0,-56.365341,-64.968384,True,-1,Magallanes
redpha1,Red Phalarope,Phalaropus fulicarius,L3459899,Feb17th-6,2015-02-17,13.0,-47.0020471,-76.0212708,True,-1,Aisén del General Carlos Ibáñez del Campo
bulalb2,Buller's Albatross,Thalassarche bulleri,L3459879,Feb17th-3,2015-02-17,1.0,-45.8242697,-75.5543518,True,-1,Aisén del General Carlos Ibáñez del Campo
gyhsif1,Gray-hooded Sierra Finch,Phrygilus gayi,L663912,SN Humedal de Tunquén--Playa Tunquén,2015-02-17,1.0,-33.2832926,-71.6554499,False,-1,Valparaíso
twbplo1,Two-banded Plover,Charadrius falklandicus,L769453,Humedal Junquillar,2015-02-17,37.0,-35.2461799,-72.3905468,False,-1,Maule
semsan,Semipalmated Sandpiper,Calidris pusilla,L769453,Humedal Junquillar,2015-02-17,56.0,-35.2461799,-72.3905468,False,-1,Maule
semplo,Semipalmated Plover,Charadrius semipalmatus,L2869629,Estero Tongoy,2015-02-17,2.0,-30.2601051,-71.4792395,True,-1,Coquimbo
belgul,Belcher's Gull,Larus belcheri,L712289,RN Pingüino de Humboldt--Isla Choros,2015-02-17,3.0,-29.2693293,-71.5412521,False,-1,Coquimbo
santer1,Sandwich Tern,Thalasseus sandvicensis,L2869629,Estero Tongoy,2015-02-17,1.0,-30.2601051,-71.4792395,True,-1,Coquimbo
surfbi,Surfbird,Calidris virgata,L1367804,Playas al sur de Arica,2015-02-17,271.0,-18.4817206,-70.3286357,True,-1,Arica y Parinacota
comter,Common Tern,Sterna hirundo,L1367804,Playas al sur de Arica,2015-02-17,14.0,-18.4817206,-70.3286357,True,-1,Arica y Parinacota
bkfibi1,Black-faced Ibis,Theristicus melanopis,L3168237,Caleta Totoral (Bahia protegida),2015-02-18,32.0,-27.810076,-71.088179,True,-1,Atacama
redpha1,Red Phalarope,Phalaropus fulicarius,L3459934,Feb18th-4,2015-02-18,10.0,-52.9333333,-73.8666667,True,-1,Magallanes
gyhalb,Gray-headed Albatross,Thalassarche chrysostoma,L3459934,Feb18th-4,2015-02-18,1.0,-52.9333333,-73.8666667,True,-1,Magallanes
salalb1,Salvin's Albatross,Thalassarche salvini,L3459934,Feb18th-4,2015-02-18,1.0,-52.9333333,-73.8666667,True,-1,Magallanes
stepet,Stejneger's Petrel,Pterodroma longirostris,L3459934,Feb18th-4,2015-02-18,4.0,-52.9333333,-73.8666667,True,-1,Magallanes
slbpri1,Slender-billed Prion,Pachyptila belcheri,L3459934,Feb18th-4,2015-02-18,11.0,-52.9333333,-73.8666667,True,-1,Magallanes
sooshe,Sooty Shearwater,Ardenna grisea,L3459934,Feb18th-4,2015-02-18,150.0,-52.9333333,-73.8666667,True,-1,Magallanes
shyalb2,Chatham Albatross,Thalassarche eremita,L3459963,Feb18th-2,2015-02-18,1.0,-52.6341186,-74.6260071,True,-1,Magallanes
y00678,Crested Caracara,Caracara plancus,L516540,Río Huasco--Desembocadura,2015-02-18,1.0,-28.4481664,-71.2002039,False,-1,Atacama
royalb1,Royal Albatross,Diomedea epomophora,L3459971,Feb18th-3,2015-02-18,1.0,-52.7805607,-74.2469788,True,-1,Magallanes
hudgod,Hudsonian Godwit,Limosa haemastica,L633604,Río Reloca--Desembocadura,2015-02-18,6.0,-35.6648974,-72.5976563,False,-1,Maule
brhgul2,Brown-hooded Gull,Chroicocephalus maculipennis,L633604,Río Reloca--Desembocadura,2015-02-18,710.0,-35.6648974,-72.5976563,False,-1,Maule
slccoo1,Slate-colored Coot,Fulica ardesiaca,L504551,Carrizal Bajo--Humedal,2015-02-18,1.0,-28.0840212,-71.1426115,False,-1,Atacama
colplo1,Collared Plover,Charadrius collaris,L593521,RN El Yali--Laguna Albufera,2015-02-18,11.0,-33.7592408,-71.7343712,False,-1,Valparaíso
twbplo1,Two-banded Plover,Charadrius falklandicus,L593521,RN El Yali--Laguna Albufera,2015-02-18,21.0,-33.7592408,-71.7343712,False,-1,Valparaíso
snoplo5,Snowy Plover,Charadrius nivosus,L593521,RN El Yali--Laguna Albufera,2015-02-18,17.0,-33.7592408,-71.7343712,False,-1,Valparaíso
semsan,Semipalmated Sandpiper,Calidris pusilla,L593521,RN El Yali--Laguna Albufera,2015-02-18,2.0,-33.7592408,-71.7343712,False,-1,Valparaíso
andgul1,Andean Gull,Chroicocephalus serranus,L604469,Río Limarí--Desembocadura,2015-02-18,19.0,-30.7277447,-71.6954041,False,-1,Coquimbo
stbbit1,Stripe-backed Bittern,Ixobrychus involucris,L516540,Río Huasco--Desembocadura,2015-02-18,1.0,-28.4481664,-71.2002039,False,-1,Atacama
whfibi,White-faced Ibis,Plegadis chihi,L516540,Río Huasco--Desembocadura,2015-02-18,1.0,-28.4481664,-71.2002039,False,-1,Atacama
seacin1,Seaside Cinclodes,Cinclodes nigrofumosus,L632248,Punta Choros,2015-02-18,15.0,-29.2519574,-71.4530182,False,-1,Coquimbo
chipen2,Chinstrap Penguin,Pygoscelis antarcticus,L2432281,Drake Passage,2015-02-18,13.0,-56.365341,-64.968384,True,-1,Magallanes
bbspet1,Black-bellied Storm-Petrel,Fregetta tropica,L2432281,Drake Passage,2015-02-18,4.0,-56.365341,-64.968384,True,-1,Magallanes
comter,Common Tern,Sterna hirundo,L681726,Playa Las Machas (Arica),2015-02-18,82.0,-18.4382504,-70.3054619,False,-1,Arica y Parinacota
wanalb,Wandering Albatross,Diomedea exulans,L3506110,Drake Passage,2015-02-19,1.0,-56.58502,-66.91158,True,-1,Magallanes
flystd1,Flying Steamer-Duck,Tachyeres patachonicus,L1033519,Ruta CH-9--Norte de Puerto del Hambre,2015-02-19,40.0,-53.5704919,-70.9380341,False,-1,Magallanes
creduc1,Crested Duck,Lophonetta specularioides,L1033519,Ruta CH-9--Norte de Puerto del Hambre,2015-02-19,150.0,-53.5704919,-70.9380341,False,-1,Magallanes
magoys1,Magellanic Oystercatcher,Haematopus leucopodus,L1033519,Ruta CH-9--Norte de Puerto del Hambre,2015-02-19,50.0,-53.5704919,-70.9380341,False,-1,Magallanes
redsho1,Red Shoveler,Spatula platalea,L861844,Humedal Urbano Cartagena,2015-02-19,134.0,-33.5350454,-71.6022348,False,-1,Valparaíso
semsan,Semipalmated Sandpiper,Calidris pusilla,L3435622,Dunas playa grande de Cartagena,2015-02-19,1.0,-33.5342986,-71.6033694,True,-1,Valparaíso
magplo1,Magellanic Plover,Pluvianellus socialis,L1033151,Laguna Los Palos,2015-02-19,9.0,-52.7358759,-71.0616302,False,-1,Magallanes
gregre1,Great Grebe,Podiceps major,L2843693,Tranque Las Cenizas,2015-02-19,12.0,-33.1070198,-71.5321541,False,-1,Valparaíso
blkski,Black Skimmer,Rynchops niger,L504553,SN Humedal Río Maipo--Desembocadura,2015-02-19,605.0,-33.6198013,-71.6275442,False,-1,Valparaíso
ticdor1,Ticking Doradito,Pseudocolopteryx citreola,L504553,SN Humedal Río Maipo--Desembocadura,2015-02-19,4.0,-33.6198013,-71.6275442,False,-1,Valparaíso
whcpin,White-cheeked Pintail,Anas bahamensis,L668852,Río Lluta--Desembocadura,2015-02-19,6.0,-18.4165392,-70.3224081,False,-1,Arica y Parinacota
semplo,Semipalmated Plover,Charadrius semipalmatus,L668852,Río Lluta--Desembocadura,2015-02-19,32.0,-18.4165392,-70.3224081,False,-1,Arica y Parinacota
stisan,Stilt Sandpiper,Calidris himantopus,L668852,Río Lluta--Desembocadura,2015-02-19,1.0,-18.4165392,-70.3224081,False,-1,Arica y Parinacota
wessan,Western Sandpiper,Calidris mauri,L668852,Río Lluta--Desembocadura,2015-02-19,1.0,-18.4165392,-70.3224081,False,-1,Arica y Parinacota
comter,Common Tern,Sterna hirundo,L668852,Río Lluta--Desembocadura,2015-02-19,34.0,-18.4165392,-70.3224081,False,-1,Arica y Parinacota
blhduc1,Black-headed Duck,Heteronetta atricapilla,L580436,Laguna Conchalí,2015-02-20,2.0,-31.8762457,-71.4969635,True,-1,Coquimbo
bknsti,Black-necked Stilt,Himantopus mexicanus,L580436,Laguna Conchalí,2015-02-20,141.0,-31.8762457,-71.4969635,True,-1,Coquimbo
greyel,Greater Yellowlegs,Tringa melanoleuca,L580436,Laguna Conchalí,2015-02-20,99.0,-31.8762457,-71.4969635,True,-1,Coquimbo
magplo1,Magellanic Plover,Pluvianellus socialis,L1033151,Laguna Los Palos,2015-02-20,50.0,-52.7358759,-71.0616302,False,-1,Magallanes
twbplo1,Two-banded Plover,Charadrius falklandicus,L1033151,Laguna Los Palos,2015-02-20,148.0,-52.7358759,-71.0616302,False,-1,Magallanes
greshe,Great Shearwater,Ardenna gravis,L1032990,Parque Pingüino Rey (Desembocadura Río Marazzi),2015-02-20,60.0,-53.4619671,-69.3105555,False,-1,Magallanes
semplo,Semipalmated Plover,Charadrius semipalmatus,L604466,Río Choapa--Desembocadura,2015-02-20,2.0,-31.6204244,-71.5592766,False,-1,Coquimbo
andgul1,Andean Gull,Chroicocephalus serranus,L604466,Río Choapa--Desembocadura,2015-02-20,16.0,-31.6204244,-71.5592766,False,-1,Coquimbo
turvul,Turkey Vulture,Cathartes aura,L674599,Antofagasta,2015-02-21,250.0,-23.6495561,-70.3948975,False,-1,Antofagasta
hudgod,Hudsonian Godwit,Limosa haemastica,L629583,SN Península de Hualpén--Humedal Lenga,2015-02-21,10.0,-36.7694689,-73.1668103,False,-1,Bío-Bío
andgul1,Andean Gull,Chroicocephalus serranus,L3143579,Complejo fronterizo Pehuenche,2015-02-21,17.0,-36.0074786,-70.560379,True,-1,Maule
horcoo1,Horned Coot,Fulica cornuta,L516563,RN Los Flamencos--Laguna Miscanti,2015-02-21,166.0,-23.7259547,-67.771225,False,-1,Antofagasta
royalb1,Royal Albatross,Diomedea epomophora,L3461037,Feb21st-4,2015-02-21,7.0,-55.8032363,-65.6460571,True,-1,Magallanes
wanalb,Wandering Albatross,Diomedea exulans,L3461037,Feb21st-4,2015-02-21,6.0,-55.8032363,-65.6460571,True,-1,Magallanes
wispet,Wilson's Storm-Petrel,Oceanites oceanicus,L3461037,Feb21st-4,2015-02-21,100.0,-55.8032363,-65.6460571,True,-1,Magallanes
codpet1,Common Diving-Petrel,Pelecanoides urinatrix,L3461037,Feb21st-4,2015-02-21,1.0,-55.8032363,-65.6460571,True,-1,Magallanes
gyhalb,Gray-headed Albatross,Thalassarche chrysostoma,L3461024,Feb21st-3,2015-02-21,2.0,-55.9763084,-66.5180969,True,-1,Magallanes
whcpet1,White-chinned Petrel,Procellaria aequinoctialis,L3461024,Feb21st-3,2015-02-21,25.0,-55.9763084,-66.5180969,True,-1,Magallanes
greshe,Great Shearwater,Ardenna gravis,L3461024,Feb21st-3,2015-02-21,2.0,-55.9763084,-66.5180969,True,-1,Magallanes
commin1,Common Miner,Geositta cunicularia,L604483,Pichicuy--Humedal,2015-02-21,3.0,-32.3469021,-71.4466238,False,-1,Valparaíso
soasni3,Magellanic Snipe,Gallinago magellanica,L504553,SN Humedal Río Maipo--Desembocadura,2015-02-21,7.0,-33.6198013,-71.6275442,False,-1,Valparaíso
santer1,Sandwich Tern,Thalasseus sandvicensis,L504553,SN Humedal Río Maipo--Desembocadura,2015-02-21,1.0,-33.6198013,-71.6275442,False,-1,Valparaíso
magwoo1,Magellanic Woodpecker,Campephilus magellanicus,L3405842,laguna onet,2015-02-21,5.0,-50.7134173,-72.7736092,True,-1,Magallanes
ticdor1,Ticking Doradito,Pseudocolopteryx citreola,L504553,SN Humedal Río Maipo--Desembocadura,2015-02-21,4.0,-33.6198013,-71.6275442,False,-1,Valparaíso
comgal1,Common Gallinule,Gallinula galeata,L504549,Punta Teatinos--Laguna Saladita,2015-02-22,1.0,-29.8220854,-71.2886524,False,-1,Coquimbo
gyhalb,Gray-headed Albatross,Thalassarche chrysostoma,L4929257,Drake Passage (Chilean waters),2015-02-22,2.0,-56.8955507,-66.1830139,True,-1,Magallanes
limalb1,Light-mantled Albatross,Phoebetria palpebrata,L4929257,Drake Passage (Chilean waters),2015-02-22,1.0,-56.8955507,-66.1830139,True,-1,Magallanes
royalb1,Royal Albatross,Diomedea epomophora,L4929257,Drake Passage (Chilean waters),2015-02-22,3.0,-56.8955507,-66.1830139,True,-1,Magallanes
wanalb,Wandering Albatross,Diomedea exulans,L4929257,Drake Passage (Chilean waters),2015-02-22,3.0,-56.8955507,-66.1830139,True,-1,Magallanes
bbspet1,Black-bellied Storm-Petrel,Fregetta tropica,L4929257,Drake Passage (Chilean waters),2015-02-22,1.0,-56.8955507,-66.1830139,True,-1,Magallanes
blupet1,Blue Petrel,Halobaena caerulea,L4929257,Drake Passage (Chilean waters),2015-02-22,1.0,-56.8955507,-66.1830139,True,-1,Magallanes
slbpri1,Slender-billed Prion,Pachyptila belcheri,L4929257,Drake Passage (Chilean waters),2015-02-22,5.0,-56.8955507,-66.1830139,True,-1,Magallanes
saffin,Saffron Finch,Sicalis flaveola,L3435213,LAGO RANCO (LAGO RANCO),2015-02-22,3.0,-40.3187559,-72.4750444,True,-1,Los Ríos
redsho1,Red Shoveler,Spatula platalea,L502857,Tranque La Cadellada,2015-02-22,1929.0,-33.2049405,-70.7892036,False,-1,Región Metropolitana de Santiago
chiwig1,Chiloe Wigeon,Mareca sibilatrix,L502857,Tranque La Cadellada,2015-02-22,456.0,-33.2049405,-70.7892036,False,-1,Región Metropolitana de Santiago
yebtea1,Yellow-billed Teal,Anas flavirostris,L502857,Tranque La Cadellada,2015-02-22,663.0,-33.2049405,-70.7892036,False,-1,Región Metropolitana de Santiago
blhduc1,Black-headed Duck,Heteronetta atricapilla,L502857,Tranque La Cadellada,2015-02-22,402.0,-33.2049405,-70.7892036,False,-1,Región Metropolitana de Santiago
silgre1,Silvery Grebe,Podiceps occipitalis,L502857,Tranque La Cadellada,2015-02-22,68.0,-33.2049405,-70.7892036,False,-1,Región Metropolitana de Santiago
incter1,Inca Tern,Larosterna inca,L2988068,SN Península de Hualpén,2015-02-22,20.0,-36.7796965,-73.1821542,False,-1,Bío-Bío
semplo,Semipalmated Plover,Charadrius semipalmatus,L673642,Río Elqui--Desembocadura,2015-02-22,2.0,-29.8933968,-71.2727094,False,-1,Coquimbo
margod,Marbled Godwit,Limosa fedoa,L673642,Río Elqui--Desembocadura,2015-02-22,1.0,-29.8933968,-71.2727094,False,-1,Coquimbo
gyfcin1,Gray-flanked Cinclodes,Cinclodes oustaleti,L3435447,Punta Loberia,2015-02-23,1.0,-23.0598917,-70.5510503,True,-1,Antofagasta
gregre1,Great Grebe,Podiceps major,L3498349,Mejillones,2015-02-23,1.0,-23.0994903,-70.473336,True,-1,Antofagasta
soasni3,Magellanic Snipe,Gallinago magellanica,L3442121,Humedal Invernal,2015-02-24,20.0,-35.2229133,-72.2988635,True,-1,Maule
redpha1,Red Phalarope,Phalaropus fulicarius,L3460180,"Laguna Azul, Torres del Paine NP",2015-02-24,1.0,-50.8766667,-72.7333333,True,-1,Magallanes
whtgre3,White-tufted Grebe,Rollandia rolland,L635297,Humedal de Putú,2015-02-24,150.0,-35.1553896,-72.2467804,False,-1,Maule
whfibi,White-faced Ibis,Plegadis chihi,L635297,Humedal de Putú,2015-02-24,60.0,-35.1553896,-72.2467804,False,-1,Maule
semsan,Semipalmated Sandpiper,Calidris pusilla,L635297,Humedal de Putú,2015-02-25,1.0,-35.1553896,-72.2467804,False,-1,Maule
elctin1,Elegant Crested-Tinamou,Eudromia elegans,L3340351,Chile Chico--aeródromo,2015-02-25,31.0,-46.5824997,-71.69034,False,-1,Aisén del General Carlos Ibáñez del Campo
cibgrt1,Cinnamon-bellied Ground-Tyrant,Muscisaxicola capistratus,L3441550,Laguna del Yeso,2015-02-25,0.0,-34.4146812,-70.2017355,False,-1,Libertador General Bernardo O'Higgins
sander,Sanderling,Calidris alba,L516554,Hornitos (Antofagasta)--Norte,2015-02-25,1800.0,-22.8578274,-70.2953339,False,-1,Antofagasta
rocpen1,Southern Rockhopper Penguin,Eudyptes chrysocome,L571146,Ferry Punta Arenas-Porvenir (Pelágico),2015-02-25,1.0,-53.233989,-70.6777954,False,-1,Magallanes
cosswa1,Coscoroba Swan,Coscoroba coscoroba,L3443141,"-28,0837 X -71,1420",2015-02-26,13.0,-28.08366,-71.14201,True,-1,Atacama
lesrhe2,Lesser Rhea,Rhea pennata,L3508500,Los Helados,2015-02-26,3.0,-28.2647563,-69.6551067,True,-1,Atacama
elctin1,Elegant Crested-Tinamou,Eudromia elegans,L3340351,Chile Chico--aeródromo,2015-02-26,3.0,-46.5824997,-71.69034,False,-1,Aisén del General Carlos Ibáñez del Campo
patmoc1,Patagonian Mockingbird,Mimus patagonicus,L3340351,Chile Chico--aeródromo,2015-02-26,8.0,-46.5824997,-71.69034,False,-1,Aisén del General Carlos Ibáñez del Campo
greshe,Great Shearwater,Ardenna gravis,L3249856,Punta Dúngenes (Chile),2015-02-27,5.0,-52.3925181,-68.4347767,False,-1,Magallanes
saffin,Saffron Finch,Sicalis flaveola,L4016892,Agronomia UACH,2015-02-27,1.0,-39.8051651,-73.2533678,True,-1,Los Ríos
margod,Marbled Godwit,Limosa fedoa,L673642,Río Elqui--Desembocadura,2015-02-27,1.0,-29.8933968,-71.2727094,False,-1,Coquimbo
gresht1,Great Shrike-Tyrant,Agriornis lividus,L3042491,Parque Tumbes,2015-02-27,1.0,-36.7119179,-73.1552982,True,-1,Bío-Bío
helpip1,Hellmayr's Pipit,Anthus hellmayri,L3042491,Parque Tumbes,2015-02-27,4.0,-36.7119179,-73.1552982,True,-1,Bío-Bío
easkin,Eastern Kingbird,Tyrannus tyrannus,L3449335,"Edificios ""Los Colectivos"", Tocopilla.",2015-02-28,1.0,-22.0893562,-70.193949,True,-1,Antofagasta
soasni3,Magellanic Snipe,Gallinago magellanica,L3516227,"-33.6316x-70.0153 - Feb 28, 2015, 12:25 PM",2015-02-28,1.0,-33.631603,-70.015312,True,-1,Región Metropolitana de Santiago
comter,Common Tern,Sterna hirundo,L861844,Humedal Urbano Cartagena,2015-02-28,4.0,-33.5350454,-71.6022348,False,-1,Valparaíso
santer1,Sandwich Tern,Thalasseus sandvicensis,L861844,Humedal Urbano Cartagena,2015-02-28,2.0,-33.5350454,-71.6022348,False,-1,Valparaíso
whtcar1,White-throated Caracara,Daptrius albogularis,L3570258,Puerto Williams - Sendero Cerro Bandera,2015-02-28,1.0,-54.9484575,-67.6401686,True,-1,Magallanes
siltea1,Silver Teal,Spatula versicolor,L504553,SN Humedal Río Maipo--Desembocadura,2015-02-28,4.0,-33.6198013,-71.6275442,False,-1,Valparaíso
ticdor1,Ticking Doradito,Pseudocolopteryx citreola,L504553,SN Humedal Río Maipo--Desembocadura,2015-02-28,2.0,-33.6198013,-71.6275442,False,-1,Valparaíso
hudgod,Hudsonian Godwit,Limosa haemastica,L516521,Caulín,2015-03-01,600.0,-41.8259378,-73.6275078,False,-1,Los Lagos
redkno,Red Knot,Calidris canutus,L516521,Caulín,2015-03-01,50.0,-41.8259378,-73.6275078,False,-1,Los Lagos
chipig2,Chilean Pigeon,Patagioenas araucana,L3451900,"-36.0711x-72.7845 - Mar 1, 2015, 3:11 PM",2015-03-01,125.0,-36.071144,-72.784538,True,-1,Ñuble
gyhsif1,Gray-hooded Sierra Finch,Phrygilus gayi,L5067776,Camino Valle Nevado--Plaza de los Pumas,2015-03-01,2.0,-33.3598718,-70.2904201,False,-1,Región Metropolitana de Santiago
whwcin1,White-winged Cinclodes,Cinclodes atacamensis,L724695,Vados del Putana,2015-03-01,15.0,-22.533805,-68.0335236,False,-1,Antofagasta
corcan1,Cordilleran Canastero,Asthenes modesta,L724695,Vados del Putana,2015-03-01,30.0,-22.533805,-68.0335236,False,-1,Antofagasta
rngtyr1,Rufous-naped Ground-Tyrant,Muscisaxicola rufivertex,L724695,Vados del Putana,2015-03-01,20.0,-22.533805,-68.0335236,False,-1,Antofagasta
speduc2,Spectacled Duck,Speculanas specularis,L2392199,Rio Maule - Tricahue bajo,2015-03-02,11.0,-35.721615,-71.17543,True,-1,Maule
soulap1,Southern Lapwing,Vanellus chilensis,L2392199,Rio Maule - Tricahue bajo,2015-03-02,20.0,-35.721615,-71.17543,True,-1,Maule
chisku1,Chilean Skua,Stercorarius chilensis,L3438732,MN Los Pingüinos--Isla Magdalena,2015-03-02,30.0,-52.9202367,-70.5759573,False,-1,Magallanes
rbsfin1,Red-backed Sierra Finch,Idiopsar dorsalis,L815262,RN Los Flamencos--Salar de Tara,2015-03-02,20.0,-23.0127563,-67.3036194,False,-1,Antofagasta
yewbla2,Yellow-winged Blackbird,Agelasticus thilius,L3454091,Parque Bicentenario,2015-03-03,20.0,-33.3967266,-70.6017762,True,-1,Región Metropolitana de Santiago
siltea1,Silver Teal,Spatula versicolor,L1033151,Laguna Los Palos,2015-03-03,6.0,-52.7358759,-71.0616302,False,-1,Magallanes
magplo1,Magellanic Plover,Pluvianellus socialis,L1033151,Laguna Los Palos,2015-03-03,15.0,-52.7358759,-71.0616302,False,-1,Magallanes
twbplo1,Two-banded Plover,Charadrius falklandicus,L1033151,Laguna Los Palos,2015-03-03,40.0,-52.7358759,-71.0616302,False,-1,Magallanes
santer1,Sandwich Tern,Thalasseus sandvicensis,L3167678,Brazo del Estero Tongoy,2015-03-03,1.0,-30.2553974,-71.4903975,True,-1,Coquimbo
bawnig1,Band-winged Nightjar,Systellura longirostris,L3483437,Quebrada del León,2015-03-03,1.0,-26.9594097,-70.7374907,False,-1,Atacama
whbmoc1,White-banded Mockingbird,Mimus triurus,L3048503,Calle Padre André Jarlan,2015-03-03,1.0,-33.4850148,-70.5816811,True,-1,Región Metropolitana de Santiago
whfibi,White-faced Ibis,Plegadis chihi,L773574,Lago Budi--Puente Budi,2015-03-03,32.0,-38.8295451,-73.3702612,False,-1,Araucanía
ruhgoo1,Ruddy-headed Goose,Chloephaga rubidiceps,L1087903,MN Canquén Colorado,2015-03-03,12.0,-53.6514552,-70.9430552,False,-1,Magallanes
comgal1,Common Gallinule,Gallinula galeata,L504549,Punta Teatinos--Laguna Saladita,2015-03-03,1.0,-29.8220854,-71.2886524,False,-1,Coquimbo
whfibi,White-faced Ibis,Plegadis chihi,L3461533,Humedal El Culebrón,2015-03-04,5.0,-29.9692117,-71.3345718,True,-1,Coquimbo
semplo,Semipalmated Plover,Charadrius semipalmatus,L3167678,Brazo del Estero Tongoy,2015-03-04,2.0,-30.2553974,-71.4903975,True,-1,Coquimbo
pedpet1,Peruvian Diving-Petrel,Pelecanoides garnotii,L862580,Isla Santa María,2015-03-04,2.0,-37.0348991,-73.5074615,False,-1,Bío-Bío
gyfcin1,Gray-flanked Cinclodes,Cinclodes oustaleti,L862580,Isla Santa María,2015-03-04,6.0,-37.0348991,-73.5074615,False,-1,Bío-Bío
whcela1,White-crested Elaenia,Elaenia albiceps,L862580,Isla Santa María,2015-03-04,100.0,-37.0348991,-73.5074615,False,-1,Bío-Bío
santer1,Sandwich Tern,Thalasseus sandvicensis,L636004,Estero Tongoy--Desembocadura,2015-03-04,1.0,-30.25497,-71.49359,False,-1,Coquimbo
rudtur,Ruddy Turnstone,Arenaria interpres,L753893,Playa El Blanco,2015-03-04,60.0,-37.0780305,-73.1647933,False,-1,Bío-Bío
kinpen1,King Penguin,Aptenodytes patagonicus,L1032990,Parque Pingüino Rey (Desembocadura Río Marazzi),2015-03-04,80.0,-53.4619671,-69.3105555,False,-1,Magallanes
soulap1,Southern Lapwing,Vanellus chilensis,L861844,Humedal Urbano Cartagena,2015-03-05,10.0,-33.5350454,-71.6022348,False,-1,Valparaíso
comter,Common Tern,Sterna hirundo,L861844,Humedal Urbano Cartagena,2015-03-05,8.0,-33.5350454,-71.6022348,False,-1,Valparaíso
santer1,Sandwich Tern,Thalasseus sandvicensis,L861844,Humedal Urbano Cartagena,2015-03-05,3.0,-33.5350454,-71.6022348,False,-1,Valparaíso
ticdor1,Ticking Doradito,Pseudocolopteryx citreola,L504553,SN Humedal Río Maipo--Desembocadura,2015-03-05,2.0,-33.6198013,-71.6275442,False,-1,Valparaíso
creduc1,Crested Duck,Lophonetta specularioides,L3459478,CL-Valparaíso-Zapallar - -32.6304x-71.4198 - 06-03-2015 18:08,2015-03-06,1.0,-32.630366,-71.419816,True,-1,Valparaíso
mallar3,Mallard,Anas platyrhynchos,L3459478,CL-Valparaíso-Zapallar - -32.6304x-71.4198 - 06-03-2015 18:08,2015-03-06,1.0,-32.630366,-71.419816,True,1,Valparaíso
perpel1,Peruvian Pelican,Pelecanus thagus,L3459422,CL-Valparaíso-Zapallar - -32.5834x-71.4534 - 06-03-2015 17:15,2015-03-06,500.0,-32.583445,-71.453435,True,-1,Valparaíso
rubmin1,Rufous-banded Miner,Geositta rufipennis,L2736764,cerro benitez,2015-03-06,15.0,-51.5646146,-72.6153374,True,-1,Magallanes
impcor1,Imperial Cormorant,Leucocarbo atriceps,L717821,Punta Arenas--Muelle viejo,2015-03-06,260.0,-53.1660704,-70.9000111,False,-1,Magallanes
whwcin1,White-winged Cinclodes,Cinclodes atacamensis,L1040783,Embalse La Laguna,2015-03-06,4.0,-30.2187285,-70.0371552,False,-1,Coquimbo
gryfin3,Greenish Yellow-Finch,Sicalis olivascens,L1040783,Embalse La Laguna,2015-03-06,2.0,-30.2187285,-70.0371552,False,-1,Coquimbo
sheowl,Short-eared Owl,Asio flammeus,L752313,Humedal de Mantagua,2015-03-07,1.0,-32.8853535,-71.5031433,True,-1,Valparaíso
bkbalb,Black-browed Albatross,Thalassarche melanophris,L3282554,"Canal Beagle, Boca este",2015-03-07,300.0,-55.252365,-66.3274,True,-1,Magallanes
sooshe,Sooty Shearwater,Ardenna grisea,L3282554,"Canal Beagle, Boca este",2015-03-07,1500.0,-55.252365,-66.3274,True,-1,Magallanes
gyhsif1,Gray-hooded Sierra Finch,Phrygilus gayi,L3490849,Monumento Natural El Morado,2015-03-07,8.0,-33.7831602,-70.0317693,True,-1,Región Metropolitana de Santiago
moupar2,Mountain Parakeet,Psilopsiagon aurifrons,L819912,Camino Embalse El Yeso--Vega al costado del camino,2015-03-07,30.0,-33.6900671,-70.1072252,False,-1,Región Metropolitana de Santiago
magtap1,Magellanic Tapaculo,Scytalopus magellanicus,L3609375,Río Mostazal--Nacimiento,2015-03-07,1.0,-30.8387203,-70.3191948,False,-1,Coquimbo
gryfin3,Greenish Yellow-Finch,Sicalis olivascens,L782822,Hurtado,2015-03-07,8.0,-30.2759689,-70.6650925,False,-1,Coquimbo
gyhsif1,Gray-hooded Sierra Finch,Phrygilus gayi,L4246794,SN Islote Pájaros Niños,2015-03-08,3.0,-33.35961,-71.687204,False,-1,Valparaíso
gybsee1,Gray-breasted Seedsnipe,Thinocorus orbignyianus,L594542,Embalse El Yeso--Vegas superiores,2015-03-08,34.0,-33.6250545,-70.0251281,False,-1,Región Metropolitana de Santiago
semplo,Semipalmated Plover,Charadrius semipalmatus,L3167678,Brazo del Estero Tongoy,2015-03-08,3.0,-30.2553974,-71.4903975,True,-1,Coquimbo
moupar2,Mountain Parakeet,Psilopsiagon aurifrons,L819912,Camino Embalse El Yeso--Vega al costado del camino,2015-03-08,30.0,-33.6900671,-70.1072252,False,-1,Región Metropolitana de Santiago
perpel1,Peruvian Pelican,Pelecanus thagus,L4612317,SN Islote Peña Blanca y Punta Peña Blanca,2015-03-09,1000.0,-33.3652841,-71.6935855,False,-1,Valparaíso
hudgod,Hudsonian Godwit,Limosa haemastica,L2919727,Lenga - Humedal,2015-03-09,50.0,-36.7683184,-73.1684732,True,-1,Bío-Bío
andcon1,Andean Condor,Vultur gryphus,L3481453,"rd to Rio Verde, Hwy 90 and Y-50, Punta Arenas, Chile",2015-03-09,24.0,-52.8007809,-71.1855869,True,-1,Magallanes
bichaw4,Chilean Hawk,Accipiter chilensis,L592898,Puerto Williams,2015-03-09,0.0,-54.9331831,-67.6041985,False,-1,Magallanes
ticdor1,Ticking Doradito,Pseudocolopteryx citreola,L504553,SN Humedal Río Maipo--Desembocadura,2015-03-09,2.0,-33.6198013,-71.6275442,False,-1,Valparaíso
fotfly,Fork-tailed Flycatcher,Tyrannus savana,L6435829,"Pica, Chile",2015-03-10,1.0,-20.4832738,-69.3194454,True,-1,Tarapacá
soasni3,Magellanic Snipe,Gallinago magellanica,L1030452,Camino a La Parva--Vegas y Pastizales,2015-03-10,1.0,-33.3442243,-70.299046,False,-1,Región Metropolitana de Santiago
kinpen1,King Penguin,Aptenodytes patagonicus,L1032990,Parque Pingüino Rey (Desembocadura Río Marazzi),2015-03-10,84.0,-53.4619671,-69.3105555,False,-1,Magallanes
silgre1,Silvery Grebe,Podiceps occipitalis,L572342,Laguna Santa María,2015-03-10,100.0,-53.3861952,-70.3288937,False,-1,Magallanes
redsho1,Red Shoveler,Spatula platalea,L502857,Tranque La Cadellada,2015-03-10,700.0,-33.2049405,-70.7892036,False,-1,Región Metropolitana de Santiago
chisku1,Chilean Skua,Stercorarius chilensis,L571146,Ferry Punta Arenas-Porvenir (Pelágico),2015-03-10,100.0,-53.233989,-70.6777954,False,-1,Magallanes
rubsee2,Rufous-bellied Seedsnipe,Attagis gayi,L3501009,Mallin Grande,2015-03-10,15.0,-46.8363285,-72.436595,True,-1,Aisén del General Carlos Ibáñez del Campo
spfgal1,Spot-flanked Gallinule,Porphyriops melanops,L3481561,Parque Bicentenario de Vitacura (no contar cisnes),2015-03-11,40.0,-33.3980197,-70.6022,False,-1,Región Metropolitana de Santiago
yewbla2,Yellow-winged Blackbird,Agelasticus thilius,L3481561,Parque Bicentenario de Vitacura (no contar cisnes),2015-03-11,30.0,-33.3980197,-70.6022,False,-1,Región Metropolitana de Santiago
belgul,Belcher's Gull,Larus belcheri,L763116,Fuerte Lambert ,2015-03-11,1.0,-29.9339241,-71.3358271,False,-1,Coquimbo
magplo1,Magellanic Plover,Pluvianellus socialis,L572718,MN Laguna de los Cisnes,2015-03-11,70.0,-53.2465985,-70.3735364,False,-1,Magallanes
speduc2,Spectacled Duck,Speculanas specularis,L571417,Lago Colbún,2015-03-11,19.0,-35.718643,-71.209259,False,-1,Maule
andgul1,Andean Gull,Chroicocephalus serranus,L571417,Lago Colbún,2015-03-11,26.0,-35.718643,-71.209259,False,-1,Maule
stisan,Stilt Sandpiper,Calidris himantopus,L668852,Río Lluta--Desembocadura,2015-03-11,3.0,-18.4165392,-70.3224081,False,-1,Arica y Parinacota
leasan,Least Sandpiper,Calidris minutilla,L668852,Río Lluta--Desembocadura,2015-03-11,3.0,-18.4165392,-70.3224081,False,-1,Arica y Parinacota
lakduc1,Lake Duck,Oxyura vittata,L3455462,Tranque el Culenar,2015-03-11,101.0,-35.1760019,-71.5417671,True,-1,Maule
shicow,Shiny Cowbird,Molothrus bonariensis,L3084230,freire,2015-03-12,142.0,-38.957273,-72.6230621,True,-1,Araucanía
colplo1,Collared Plover,Charadrius collaris,L3490079,Jardín del Lago,2015-03-12,1.0,-34.12522,-71.4183,False,-1,Libertador General Bernardo O'Higgins
blkski,Black Skimmer,Rynchops niger,L3490079,Jardín del Lago,2015-03-12,30.0,-34.12522,-71.4183,False,-1,Libertador General Bernardo O'Higgins
whtkit,White-tailed Kite,Elanus leucurus,L774555,Campus Sur -  Universidad de Chile,2015-03-12,1.0,-33.5708994,-70.6356955,False,-1,Región Metropolitana de Santiago
osprey,Osprey,Pandion haliaetus,L2869629,Estero Tongoy,2015-03-12,1.0,-30.2601051,-71.4792395,True,-1,Coquimbo
gyhsif1,Gray-hooded Sierra Finch,Phrygilus gayi,L3504693,"-32.8442x-70.1150 - Mar 12, 2015, 11:24 AM",2015-03-12,1.0,-32.844231,-70.114983,True,-1,Valparaíso
sheowl,Short-eared Owl,Asio flammeus,L606243,Humedal Tres Puentes,2015-03-13,2.0,-53.1162328,-70.8813,False,-1,Magallanes
perpel1,Peruvian Pelican,Pelecanus thagus,L1103148,MN Isla Cachagua,2015-03-13,300.0,-32.585585,-71.4562798,False,-1,Valparaíso
chisku1,Chilean Skua,Stercorarius chilensis,L11189892,"Oceano Pacifico, Punta Arenas CL-Magallanes and Antartica Chilena (-53.1592,-70.8753)",2015-03-13,4.0,-53.159193,-70.875334,True,-1,Magallanes
salalb1,Salvin's Albatross,Thalassarche salvini,L570174,Quintero--Pelágico,2015-03-13,110.0,-32.7693779,-71.5838242,False,-1,Valparaíso
snoegr,Snowy Egret,Egretta thula,L2464196,ENSENADA VALLE SIMPSON,2015-03-14,7.0,-45.6939204,-72.1621299,True,-1,Aisén del General Carlos Ibáñez del Campo
brnnod,Brown Noddy,Anous stolidus,L1467094,Motus - Rapa Nui,2015-03-14,30.0,-27.2004383,-109.4531592,True,-1,Valparaíso
grynod1,Gray Noddy,Anous albivitta,L1467094,Motus - Rapa Nui,2015-03-14,1.0,-27.2004383,-109.4531592,True,-1,Valparaíso
kerpet,Kermadec Petrel,Pterodroma neglecta,L1467094,Motus - Rapa Nui,2015-03-14,24.0,-27.2004383,-109.4531592,True,-1,Valparaíso
herpet2,Herald Petrel,Pterodroma heraldica,L1467094,Motus - Rapa Nui,2015-03-14,36.0,-27.2004383,-109.4531592,True,-1,Valparaíso
henpet1,Henderson Petrel,Pterodroma atrata,L1467094,Motus - Rapa Nui,2015-03-14,1.0,-27.2004383,-109.4531592,True,-1,Valparaíso
phopet1,Phoenix Petrel,Pterodroma alba,L1467094,Motus - Rapa Nui,2015-03-14,1.0,-27.2004383,-109.4531592,True,-1,Valparaíso
chrshe,Christmas Shearwater,Puffinus nativitatis,L1467094,Motus - Rapa Nui,2015-03-14,1.0,-27.2004383,-109.4531592,True,-1,Valparaíso
grefri,Great Frigatebird,Fregata minor,L1467094,Motus - Rapa Nui,2015-03-14,55.0,-27.2004383,-109.4531592,True,-1,Valparaíso
masboo,Masked Booby,Sula dactylatra,L1467094,Motus - Rapa Nui,2015-03-14,60.0,-27.2004383,-109.4531592,True,-1,Valparaíso
fotfly,Fork-tailed Flycatcher,Tyrannus savana,L3491483,San Pedro,2015-03-14,1.0,-29.8740527,-71.2649712,True,-1,Coquimbo
gyhsif1,Gray-hooded Sierra Finch,Phrygilus gayi,L690096,SN Yerba Loca [usar hotspots específicos],2015-03-14,1.0,-33.303847,-70.3186798,False,-1,Región Metropolitana de Santiago
libher,Little Blue Heron,Egretta caerulea,L516549,Humedal Lagunillas,2015-03-14,1.0,-30.117958,-71.3705349,False,-1,Coquimbo
fotfly,Fork-tailed Flycatcher,Tyrannus savana,L2897084,"Las Dunas, Caleta San Pedro, La Serena",2015-03-15,2.0,-29.8727485,-71.2644938,True,-1,Coquimbo
chipig2,Chilean Pigeon,Patagioenas araucana,L3398643,La Serena--Caleta San Pedro,2015-03-15,1.0,-29.8746993,-71.2750697,False,-1,Coquimbo
kerpet,Kermadec Petrel,Pterodroma neglecta,L1467014,Orongo - Rapa Nui,2015-03-15,1.0,-27.1899937,-109.4422909,True,-1,Valparaíso
grefri,Great Frigatebird,Fregata minor,L1467014,Orongo - Rapa Nui,2015-03-15,6.0,-27.1899937,-109.4422909,True,-1,Valparaíso
masboo,Masked Booby,Sula dactylatra,L1467014,Orongo - Rapa Nui,2015-03-15,20.0,-27.1899937,-109.4422909,True,-1,Valparaíso
cosswa1,Coscoroba Swan,Coscoroba coscoroba,L516540,Río Huasco--Desembocadura,2015-03-15,16.0,-28.4481664,-71.2002039,False,-1,Atacama
whshil1,White-sided Hillstar,Oreotrochilus leucopleurus,L3042491,Parque Tumbes,2015-03-15,1.0,-36.7119179,-73.1552982,True,-1,Bío-Bío
pafear1,Patagonian Forest Earthcreeper,Upucerthia saturatior,L1309608,Termas de Chillán,2015-03-15,3.0,-36.9067285,-71.4109504,False,-1,Ñuble
grefri,Great Frigatebird,Fregata minor,L2067471,Vinapu,2015-03-16,2.0,-27.176241,-109.406631,True,-1,Valparaíso
masboo,Masked Booby,Sula dactylatra,L2067471,Vinapu,2015-03-16,1.0,-27.176241,-109.406631,True,-1,Valparaíso
rettro,Red-tailed Tropicbird,Phaethon rubricauda,L1467088,Rano Raraku - Rapa Nui,2015-03-16,1.0,-27.1240466,-109.2856077,True,-1,Valparaíso
fotfly,Fork-tailed Flycatcher,Tyrannus savana,L3398643,La Serena--Caleta San Pedro,2015-03-16,1.0,-29.8746993,-71.2750697,False,-1,Coquimbo
bkfibi2,Andean Ibis,Theristicus branickii,L3500039,"Poconchile ,",2015-03-16,4.0,-18.4505552,-70.0663872,True,-1,Arica y Parinacota
grefri,Great Frigatebird,Fregata minor,L3500643,"-27.1668x-109.3652 - Mar 17, 2015, 7:47 PM",2015-03-17,1.0,-27.166798,-109.365158,True,-1,Valparaíso
masboo,Masked Booby,Sula dactylatra,L3500643,"-27.1668x-109.3652 - Mar 17, 2015, 7:47 PM",2015-03-17,8.0,-27.166798,-109.365158,True,-1,Valparaíso
fotfly,Fork-tailed Flycatcher,Tyrannus savana,L3494855,Caleta San Pedro,2015-03-17,2.0,-29.878119,-71.2638761,True,-1,Coquimbo
comgal1,Common Gallinule,Gallinula galeata,L504549,Punta Teatinos--Laguna Saladita,2015-03-18,1.0,-29.8220854,-71.2886524,False,-1,Coquimbo
demwir1,Des Murs's Wiretail,Sylviorthorhynchus desmursii,L807764,Las Quemas Altas,2015-03-18,7.0,-40.6284479,-73.117919,False,-1,Los Lagos
dutcan1,Dusky-tailed Canastero,Pseudasthenes humicola,L3500636,"-25.0137x-70.4282 - Mar 19, 2015, 7:33 PM",2015-03-19,1.0,-25.0137,-70.428246,True,-1,Antofagasta
rubmin1,Rufous-banded Miner,Geositta rufipennis,L3500637,quebrada Paposo - vertiente,2015-03-19,1.0,-25.018412,-70.430023,True,-1,Antofagasta
gyhsif1,Gray-hooded Sierra Finch,Phrygilus gayi,L3500637,quebrada Paposo - vertiente,2015-03-19,3.0,-25.018412,-70.430023,True,-1,Antofagasta
uplgoo1,Upland Goose,Chloephaga picta,L606243,Humedal Tres Puentes,2015-03-19,534.0,-53.1162328,-70.8813,False,-1,Magallanes
categr,Cattle Egret,Bubulcus ibis,L606243,Humedal Tres Puentes,2015-03-19,2.0,-53.1162328,-70.8813,False,-1,Magallanes
sheowl,Short-eared Owl,Asio flammeus,L606243,Humedal Tres Puentes,2015-03-19,2.0,-53.1162328,-70.8813,False,-1,Magallanes
libher,Little Blue Heron,Egretta caerulea,L791057,Estero El Culebrón--Desembocadura,2015-03-19,1.0,-29.9617015,-71.3218206,False,-1,Coquimbo
whttap1,White-throated Tapaculo,Scelorchilus albicollis,L3500637,quebrada Paposo - vertiente,2015-03-19,1.0,-25.018412,-70.430023,True,-1,Antofagasta
uplsan,Upland Sandpiper,Bartramia longicauda,L3524529,Cerros entre Ruta B-400 y Ruta B-350 (700 m),2015-03-20,1.0,-23.3982999,-70.2931666,True,-1,Antofagasta
parjae,Parasitic Jaeger,Stercorarius parasiticus,L3502120,Bahía Mejillones--Mar adentro,2015-03-20,27.0,-23.0507527,-70.4700451,False,-1,Antofagasta
norgip1,Northern Giant-Petrel,Macronectes halli,L3502221,A4-Pelagico Marzo 20 - 2015,2015-03-20,1.0,-22.94578,-70.65718,True,-1,Antofagasta
bulshe,Buller's Shearwater,Ardenna bulleri,L3502221,A4-Pelagico Marzo 20 - 2015,2015-03-20,2.0,-22.94578,-70.65718,True,-1,Antofagasta
greshe,Great Shearwater,Ardenna gravis,L3502208,A3-Pelagico Marzo 20 - 2015,2015-03-20,1.0,-22.89806,-70.67926,True,-1,Antofagasta
lotjae,Long-tailed Jaeger,Stercorarius longicaudus,L3502180,A2-Pelagico Marzo 20 - 2015,2015-03-20,2.0,-22.89558,-70.67258,True,-1,Antofagasta
swtgul1,Swallow-tailed Gull,Creagrus furcatus,L3502180,A2-Pelagico Marzo 20 - 2015,2015-03-20,1.0,-22.89558,-70.67258,True,-1,Antofagasta
kerpet,Kermadec Petrel,Pterodroma neglecta,L3502180,A2-Pelagico Marzo 20 - 2015,2015-03-20,1.0,-22.89558,-70.67258,True,-1,Antofagasta
uplsan,Upland Sandpiper,Bartramia longicauda,L3514054,"Brea, Ruta B-902",2015-03-21,6.0,-25.5022883,-70.4115044,False,-1,Antofagasta
gyhsif1,Gray-hooded Sierra Finch,Phrygilus gayi,L3514054,"Brea, Ruta B-902",2015-03-21,1.0,-25.5022883,-70.4115044,False,-1,Antofagasta
snoplo5,Snowy Plover,Charadrius nivosus,L504548,Estero Mantagua,2015-03-21,6.0,-32.8844165,-71.5067482,False,-1,Valparaíso
chiswa1,Chilean Swallow,Tachycineta leucopyga,L504548,Estero Mantagua,2015-03-21,300.0,-32.8844165,-71.5067482,False,-1,Valparaíso
chitin1,Chilean Tinamou,Nothoprocta perdicaria,L760601,Estero Mantagua--norte del estero,2015-03-21,6.0,-32.8748026,-71.508997,False,-1,Valparaíso
dafgrt1,Dark-faced Ground-Tyrant,Muscisaxicola maclovianus,L2961590,Ruta B-902,2015-03-21,1.0,-25.5045016,-70.3986552,True,-1,Antofagasta
sooshe,Sooty Shearwater,Ardenna grisea,L570165,Reñaca--Montemar,2015-03-21,6000.0,-32.9576713,-71.5500712,False,-1,Valparaíso
diaplo1,Diademed Sandpiper-Plover,Phegornis mitchellii,L3226403,Los Corrales,2015-03-21,8.0,-30.1565856,-69.8796863,True,-1,Coquimbo
cingrt1,Cinereous Ground-Tyrant,Muscisaxicola cinereus,L3226403,Los Corrales,2015-03-21,13.0,-30.1565856,-69.8796863,True,-1,Coquimbo
whttap1,White-throated Tapaculo,Scelorchilus albicollis,L3180812,Quebrada Paposo,2015-03-21,1.0,-25.0298822,-70.4538953,False,-1,Antofagasta
norgip1,Northern Giant-Petrel,Macronectes halli,L3550581,A4B- pelagico marzo21-2015,2015-03-21,1.0,-22.88385,-70.65032,True,-1,Antofagasta
bulshe,Buller's Shearwater,Ardenna bulleri,L3550581,A4B- pelagico marzo21-2015,2015-03-21,6.0,-22.88385,-70.65032,True,-1,Antofagasta
categr,Cattle Egret,Bubulcus ibis,L606243,Humedal Tres Puentes,2015-03-21,1.0,-53.1162328,-70.8813,False,-1,Magallanes
whwcin1,White-winged Cinclodes,Cinclodes atacamensis,L3226371,La Colorada,2015-03-21,3.0,-30.2615738,-69.9952985,True,-1,Coquimbo
lotjae,Long-tailed Jaeger,Stercorarius longicaudus,L3550567,A3B- pelagico marzo21-2015,2015-03-21,2.0,-22.87017,-70.61305,True,-1,Antofagasta
wispet,Wilson's Storm-Petrel,Oceanites oceanicus,L3550567,A3B- pelagico marzo21-2015,2015-03-21,1.0,-22.87017,-70.61305,True,-1,Antofagasta
stbbit1,Stripe-backed Bittern,Ixobrychus involucris,L516540,Río Huasco--Desembocadura,2015-03-21,1.0,-28.4481664,-71.2002039,False,-1,Atacama
whfibi,White-faced Ibis,Plegadis chihi,L516540,Río Huasco--Desembocadura,2015-03-21,1.0,-28.4481664,-71.2002039,False,-1,Atacama
whbmoc1,White-banded Mockingbird,Mimus triurus,L3225996,Aduana Paso Aguas Negras,2015-03-21,1.0,-29.9761115,-70.0946257,True,-1,Coquimbo
greshe,Great Shearwater,Ardenna gravis,L570174,Quintero--Pelágico,2015-03-21,1.0,-32.7693779,-71.5838242,False,-1,Valparaíso
uplsan,Upland Sandpiper,Bartramia longicauda,L2932272,Quebrada San Ramón,2015-03-22,1.0,-25.2781747,-70.3175358,False,-1,Antofagasta
cocher1,Cocoi Heron,Ardea cocoi,L2111817,Hotel Antofagasta,2015-03-22,2.0,-23.6440623,-70.4012704,False,-1,Antofagasta
fotfly,Fork-tailed Flycatcher,Tyrannus savana,L3591349,"A27, km 30",2015-03-22,1.0,-18.5570592,-70.10818,True,-1,Arica y Parinacota
hudgod,Hudsonian Godwit,Limosa haemastica,L833866,Río Carampangue--Desembocadura,2015-03-22,15.0,-37.2350095,-73.2970691,False,-1,Bío-Bío
gresht1,Great Shrike-Tyrant,Agriornis lividus,L833866,Río Carampangue--Desembocadura,2015-03-22,1.0,-37.2350095,-73.2970691,False,-1,Bío-Bío
incter1,Inca Tern,Larosterna inca,L3509123,Islote de Pupuya,2015-03-22,354.0,-33.9722996,-71.8934906,False,-1,Libertador General Bernardo O'Higgins
perboo1,Peruvian Booby,Sula variegata,L3509123,Islote de Pupuya,2015-03-22,1200.0,-33.9722996,-71.8934906,False,-1,Libertador General Bernardo O'Higgins
guacor1,Guanay Cormorant,Leucocarbo bougainvillii,L3509123,Islote de Pupuya,2015-03-22,4000.0,-33.9722996,-71.8934906,False,-1,Libertador General Bernardo O'Higgins
gyhsif1,Gray-hooded Sierra Finch,Phrygilus gayi,L1147111,Farellones,2015-03-22,0.0,-33.3520394,-70.3129292,False,-1,Región Metropolitana de Santiago
uplsan,Upland Sandpiper,Bartramia longicauda,L1936528,"Jardines del Norte IV, Antofagasta",2015-03-23,1.0,-23.5698334,-70.3952515,True,-1,Antofagasta
categr,Cattle Egret,Bubulcus ibis,L572315,Punta Arenas,2015-03-23,8.0,-53.1596637,-70.8985734,False,-1,Magallanes
uplsan,Upland Sandpiper,Bartramia longicauda,L1936528,"Jardines del Norte IV, Antofagasta",2015-03-24,1.0,-23.5698334,-70.3952515,True,-1,Antofagasta
ruhgoo1,Ruddy-headed Goose,Chloephaga rubidiceps,L572343,Estancia San Gregorio,2015-03-24,16.0,-52.5666472,-70.070715,False,-1,Magallanes
grefri,Great Frigatebird,Fregata minor,L674593,Isla de Pascua (Usar puntos exactos por favor),2015-03-24,1.0,-27.1242299,-109.3754196,False,-1,Valparaíso
redpha1,Red Phalarope,Phalaropus fulicarius,L3565812,"Canal Sarmiento, 1 mi S of Punta San Marcos",2015-03-24,1.0,-51.0648042,-74.2015451,True,-1,Magallanes
uplsan,Upland Sandpiper,Bartramia longicauda,L3518562,Arica (ciudad),2015-03-25,2.0,-18.4807487,-70.3091526,False,-1,Arica y Parinacota
hoogre1,Hooded Grebe,Podiceps gallardoi,L3598447,PN Torres del Paine--Laguna Blanquillo,2015-03-25,3.0,-51.0036557,-72.8093576,False,-1,Magallanes
uplsan,Upland Sandpiper,Bartramia longicauda,L3518562,Arica (ciudad),2015-03-26,1.0,-18.4807487,-70.3091526,False,-1,Arica y Parinacota
categr,Cattle Egret,Bubulcus ibis,L3451962,Puerto Eden,2015-03-26,2.0,-49.1259057,-74.4131041,True,-1,Magallanes
margod,Marbled Godwit,Limosa fedoa,L602292,Desembocadura Río Elqui,2015-03-26,1.0,-29.8940107,-71.2723231,True,-1,Coquimbo
diaplo1,Diademed Sandpiper-Plover,Phegornis mitchellii,L3567121,Volcán Fray Carlos,2015-03-26,1.0,-34.8540307,-70.3786325,False,-1,Libertador General Bernardo O'Higgins
demwir1,Des Murs's Wiretail,Sylviorthorhynchus desmursii,L3307277,Campo de Margoni,2015-03-26,1.0,-51.5855028,-72.5992909,True,-1,Magallanes
pecsan,Pectoral Sandpiper,Calidris melanotos,L570658,SN Laguna Batuco,2015-03-26,3.0,-33.2064427,-70.8279133,False,-1,Región Metropolitana de Santiago
wantat1,Wandering Tattler,Tringa incana,L674593,Isla de Pascua (Usar puntos exactos por favor),2015-03-26,1.0,-27.1242299,-109.3754196,False,-1,Valparaíso
grefri,Great Frigatebird,Fregata minor,L674593,Isla de Pascua (Usar puntos exactos por favor),2015-03-26,2.0,-27.1242299,-109.3754196,False,-1,Valparaíso
masboo,Masked Booby,Sula dactylatra,L674593,Isla de Pascua (Usar puntos exactos por favor),2015-03-26,3.0,-27.1242299,-109.3754196,False,-1,Valparaíso
monpar,Monk Parakeet,Myiopsitta monachus,L607939,Paseo Altamirano,2015-03-27,120.0,-33.018029,-71.6392386,False,0,Valparaíso
uplsan,Upland Sandpiper,Bartramia longicauda,L3518562,Arica (ciudad),2015-03-27,5.0,-18.4807487,-70.3091526,False,-1,Arica y Parinacota
belgul,Belcher's Gull,Larus belcheri,L3166062,"Quebrada La Chimba, Antofgasta",2015-03-28,400.0,-23.5478974,-70.3830099,True,-1,Antofagasta
gyhsif1,Gray-hooded Sierra Finch,Phrygilus gayi,L663912,SN Humedal de Tunquén--Playa Tunquén,2015-03-28,1.0,-33.2832926,-71.6554499,False,-1,Valparaíso
brnnod,Brown Noddy,Anous stolidus,L674593,Isla de Pascua (Usar puntos exactos por favor),2015-03-28,35.0,-27.1242299,-109.3754196,False,-1,Valparaíso
grynod1,Gray Noddy,Anous albivitta,L674593,Isla de Pascua (Usar puntos exactos por favor),2015-03-28,3.0,-27.1242299,-109.3754196,False,-1,Valparaíso
whttro,White-tailed Tropicbird,Phaethon lepturus,L674593,Isla de Pascua (Usar puntos exactos por favor),2015-03-28,2.0,-27.1242299,-109.3754196,False,-1,Valparaíso
kerpet,Kermadec Petrel,Pterodroma neglecta,L674593,Isla de Pascua (Usar puntos exactos por favor),2015-03-28,25.0,-27.1242299,-109.3754196,False,-1,Valparaíso
herpet2,Herald Petrel,Pterodroma heraldica,L674593,Isla de Pascua (Usar puntos exactos por favor),2015-03-28,5.0,-27.1242299,-109.3754196,False,-1,Valparaíso
henpet1,Henderson Petrel,Pterodroma atrata,L674593,Isla de Pascua (Usar puntos exactos por favor),2015-03-28,2.0,-27.1242299,-109.3754196,False,-1,Valparaíso
phopet1,Phoenix Petrel,Pterodroma alba,L674593,Isla de Pascua (Usar puntos exactos por favor),2015-03-28,2.0,-27.1242299,-109.3754196,False,-1,Valparaíso
grefri,Great Frigatebird,Fregata minor,L674593,Isla de Pascua (Usar puntos exactos por favor),2015-03-28,20.0,-27.1242299,-109.3754196,False,-1,Valparaíso
masboo,Masked Booby,Sula dactylatra,L674593,Isla de Pascua (Usar puntos exactos por favor),2015-03-28,15.0,-27.1242299,-109.3754196,False,-1,Valparaíso
categr,Cattle Egret,Bubulcus ibis,L2360743,aeropuerto,2015-03-28,7.0,-51.6633209,-72.5761986,True,-1,Magallanes
redpha1,Red Phalarope,Phalaropus fulicarius,L571146,Ferry Punta Arenas-Porvenir (Pelágico),2015-03-28,1.0,-53.233989,-70.6777954,False,-1,Magallanes
uplsan,Upland Sandpiper,Bartramia longicauda,L3518562,Arica (ciudad),2015-03-28,1.0,-18.4807487,-70.3091526,False,-1,Arica y Parinacota
blnswa2,Black-necked Swan,Cygnus melancoryphus,L3524881,muelle Punucapa,2015-03-29,534.0,-39.7568377,-73.2579625,True,-1,Los Ríos
lesrhe2,Lesser Rhea,Rhea pennata,L1410481,"Tranque Baño Nuevo, sector Ñirehuao",2015-03-29,14.0,-45.2578791,-71.4941405,True,-1,Aisén del General Carlos Ibáñez del Campo
osprey,Osprey,Pandion haliaetus,L636004,Estero Tongoy--Desembocadura,2015-03-29,1.0,-30.25497,-71.49359,False,-1,Coquimbo
gyhsif1,Gray-hooded Sierra Finch,Phrygilus gayi,L1147111,Farellones,2015-03-29,2.0,-33.3520394,-70.3129292,False,-1,Región Metropolitana de Santiago
impcor1,Imperial Cormorant,Leucocarbo atriceps,L3340280,Canal Moraleda,2015-03-29,200.0,-44.2267667,-73.3776855,False,-1,Aisén del General Carlos Ibáñez del Campo
redkno,Red Knot,Calidris canutus,L516521,Caulín,2015-03-29,12.0,-41.8259378,-73.6275078,False,-1,Los Lagos
rettro,Red-tailed Tropicbird,Phaethon rubricauda,L674593,Isla de Pascua (Usar puntos exactos por favor),2015-03-29,3.0,-27.1242299,-109.3754196,False,-1,Valparaíso
whbmoc1,White-banded Mockingbird,Mimus triurus,L3526510,Cerrillos,2015-03-30,1.0,-33.5056298,-70.7181866,True,-1,Región Metropolitana de Santiago
rinkin1,Ringed Kingfisher,Megaceryle torquata,L4025578,Mulchén,2015-03-30,1.0,-37.7102882,-72.2442596,True,-1,Bío-Bío
uplsan,Upland Sandpiper,Bartramia longicauda,L3518562,Arica (ciudad),2015-03-30,3.0,-18.4807487,-70.3091526,False,-1,Arica y Parinacota
uplsan,Upland Sandpiper,Bartramia longicauda,L1936528,"Jardines del Norte IV, Antofagasta",2015-03-31,1.0,-23.5698334,-70.3952515,True,-1,Antofagasta
fragul,Franklin's Gull,Leucophaeus pipixcan,L816637,Muelle Barón,2015-04-01,2.0,-33.0404714,-71.6085005,False,-1,Valparaíso
whbmoc1,White-banded Mockingbird,Mimus triurus,L3531269,Cerrillos (El Mirador c/Miguel Socías),2015-04-01,1.0,-33.5053219,-70.7181989,True,-1,Región Metropolitana de Santiago
gyhsif1,Gray-hooded Sierra Finch,Phrygilus gayi,L571160,PN La Campana--Granizo,2015-04-01,5.0,-32.9818661,-71.1320758,False,-1,Valparaíso
whshil1,White-sided Hillstar,Oreotrochilus leucopleurus,L835047,Río Maule--Cajón 1300msnm,2015-04-02,1.0,-35.88606,-70.6551361,False,-1,Maule
pattyr2,Patagonian Tyrant,Colorhamphus parvirostris,L3568095,PN Torres del Paine--Camping Los Cuernos,2015-04-02,5.0,-51.0237164,-72.9852194,False,-1,Magallanes
seacin1,Seaside Cinclodes,Cinclodes nigrofumosus,L570165,Reñaca--Montemar,2015-04-02,11.0,-32.9576713,-71.5500712,False,-1,Valparaíso
mallar3,Mallard,Anas platyrhynchos,L1003469,Estero San Jerónimo--Desembocadura,2015-04-02,3.0,-33.3553642,-71.6547096,False,1,Valparaíso
sctear1,Scale-throated Earthcreeper,Upucerthia dumetaria,L835069,Laguna del Maule,2015-04-02,1.0,-36.0565381,-70.4971291,False,-1,Maule
yebfin1,Yellow-bridled Finch,Melanodera xanthogramma,L835069,Laguna del Maule,2015-04-02,6.0,-36.0565381,-70.4971291,False,-1,Maule
whcpin,White-cheeked Pintail,Anas bahamensis,L668852,Río Lluta--Desembocadura,2015-04-02,6.0,-18.4165392,-70.3224081,False,-1,Arica y Parinacota
stisan,Stilt Sandpiper,Calidris himantopus,L668852,Río Lluta--Desembocadura,2015-04-02,2.0,-18.4165392,-70.3224081,False,-1,Arica y Parinacota
leasan,Least Sandpiper,Calidris minutilla,L668852,Río Lluta--Desembocadura,2015-04-02,4.0,-18.4165392,-70.3224081,False,-1,Arica y Parinacota
cinhar1,Cinereous Harrier,Circus cinereus,L668852,Río Lluta--Desembocadura,2015-04-02,1.0,-18.4165392,-70.3224081,False,-1,Arica y Parinacota
categr,Cattle Egret,Bubulcus ibis,L2074963,"Limache, colegio Waldorf",2015-04-02,286.0,-32.9826641,-71.2720442,True,-1,Valparaíso
stisan,Stilt Sandpiper,Calidris himantopus,L1153126,Valle de Azapa--Tranque Sobraya,2015-04-03,2.0,-18.5752738,-70.0235939,False,-1,Arica y Parinacota
cliswa,Cliff Swallow,Petrochelidon pyrrhonota,L1153126,Valle de Azapa--Tranque Sobraya,2015-04-03,4.0,-18.5752738,-70.0235939,False,-1,Arica y Parinacota
tatdot1,Tawny-throated Dotterel,Oreopholus ruficollis,L2369200,Primera barranca,2015-04-03,159.0,-50.7973928,-72.4584389,False,-1,Magallanes
hudgod,Hudsonian Godwit,Limosa haemastica,L516521,Caulín,2015-04-03,2000.0,-41.8259378,-73.6275078,False,-1,Los Lagos
dafgrt1,Dark-faced Ground-Tyrant,Muscisaxicola maclovianus,L1569135,Estancia Cerro Guido,2015-04-03,30.0,-50.6585065,-72.3744965,False,-1,Magallanes
siltea1,Silver Teal,Spatula versicolor,L1033151,Laguna Los Palos,2015-04-03,27.0,-52.7358759,-71.0616302,False,-1,Magallanes
magplo1,Magellanic Plover,Pluvianellus socialis,L1033151,Laguna Los Palos,2015-04-03,24.0,-52.7358759,-71.0616302,False,-1,Magallanes
hoogre1,Hooded Grebe,Podiceps gallardoi,L682344,PN Torres del Paine,2015-04-03,4.0,-50.9791824,-72.5008392,True,-1,Magallanes
andcon1,Andean Condor,Vultur gryphus,L682344,PN Torres del Paine,2015-04-03,60.0,-50.9791824,-72.5008392,True,-1,Magallanes
whtcar1,White-throated Caracara,Daptrius albogularis,L682344,PN Torres del Paine,2015-04-03,1.0,-50.9791824,-72.5008392,True,-1,Magallanes
wrlrus1,Wren-like Rushbird,Phleocryptes melanops,L682344,PN Torres del Paine,2015-04-03,1.0,-50.9791824,-72.5008392,True,-1,Magallanes
uplsan,Upland Sandpiper,Bartramia longicauda,L1936528,"Jardines del Norte IV, Antofagasta",2015-04-04,1.0,-23.5698334,-70.3952515,True,-1,Antofagasta
spwpig3,Spot-winged Pigeon,Patagioenas maculosa,L570508,Putre,2015-04-04,43.0,-18.1964537,-69.5565677,False,-1,Arica y Parinacota
gyhsif1,Gray-hooded Sierra Finch,Phrygilus gayi,L1030452,Camino a La Parva--Vegas y Pastizales,2015-04-04,4.0,-33.3442243,-70.299046,False,-1,Región Metropolitana de Santiago
whbmoc1,White-banded Mockingbird,Mimus triurus,L3538949,Caleta Angosta,2015-04-04,1.0,-28.2305556,-71.1536111,True,-1,Atacama
wepdov1,West Peruvian Dove,Zenaida meloda,L1758823,Papudo quebrada,2015-04-04,10.0,-32.5159865,-71.4450704,True,-1,Valparaíso
giahum1,Giant Hummingbird,Patagona gigas,L1306146,Los maitenes 32°48´S 70°22´47; San Esteban,2015-04-04,0.0,-32.8025704,-70.3799629,True,-1,Valparaíso
giacon1,Giant Conebill,Conirostrum binghami,L516530,PN Lauca--Lago Chungará,2015-04-04,1.0,-18.2560888,-69.1623688,False,-1,Arica y Parinacota
mallar3,Mallard,Anas platyrhynchos,L1003469,Estero San Jerónimo--Desembocadura,2015-04-04,6.0,-33.3553642,-71.6547096,False,1,Valparaíso
semplo,Semipalmated Plover,Charadrius semipalmatus,L3185477,Pabellón de Pica,2015-04-04,4.0,-20.9129621,-70.1388645,False,-1,Tarapacá
diaplo1,Diademed Sandpiper-Plover,Phegornis mitchellii,L802007,Valle de las Termas del Plomo,2015-04-04,18.0,-33.6314865,-69.9248886,False,-1,Región Metropolitana de Santiago
uplsan,Upland Sandpiper,Bartramia longicauda,L724664,Chiu Chiu,2015-04-05,2.0,-22.3401327,-68.6517298,False,-1,Antofagasta
blhduc1,Black-headed Duck,Heteronetta atricapilla,L509064,SN Laguna Conchalí,2015-04-05,1.0,-31.8780678,-71.4966631,False,-1,Coquimbo
crrmin1,Creamy-rumped Miner,Geositta isabellina,L802007,Valle de las Termas del Plomo,2015-04-05,2.0,-33.6314865,-69.9248886,False,-1,Región Metropolitana de Santiago
ongtyr1,Ochre-naped Ground-Tyrant,Muscisaxicola flavinucha,L802007,Valle de las Termas del Plomo,2015-04-05,3.0,-33.6314865,-69.9248886,False,-1,Región Metropolitana de Santiago
cibgrt1,Cinnamon-bellied Ground-Tyrant,Muscisaxicola capistratus,L802007,Valle de las Termas del Plomo,2015-04-05,6.0,-33.6314865,-69.9248886,False,-1,Región Metropolitana de Santiago
bfgtyr1,Black-fronted Ground-Tyrant,Muscisaxicola frontalis,L802007,Valle de las Termas del Plomo,2015-04-05,4.0,-33.6314865,-69.9248886,False,-1,Región Metropolitana de Santiago
hoogre1,Hooded Grebe,Podiceps gallardoi,L3598447,PN Torres del Paine--Laguna Blanquillo,2015-04-05,4.0,-51.0036557,-72.8093576,False,-1,Magallanes
flystd1,Flying Steamer-Duck,Tachyeres patachonicus,L1495588,"Agua Fresca, Km. 24.5 Sur (Sector Rio Sta Maria)",2015-04-06,28.0,-53.3669937,-70.9730461,True,-1,Magallanes
norgip1,Northern Giant-Petrel,Macronectes halli,L3158989,Mar frente a Constitución,2015-04-06,12.0,-35.3121649,-72.4198151,True,-1,Maule
stepet,Stejneger's Petrel,Pterodroma longirostris,L3158989,Mar frente a Constitución,2015-04-06,1.0,-35.3121649,-72.4198151,True,-1,Maule
pedpet1,Peruvian Diving-Petrel,Pelecanoides garnotii,L3158989,Mar frente a Constitución,2015-04-06,30.0,-35.3121649,-72.4198151,True,-1,Maule
snoplo5,Snowy Plover,Charadrius nivosus,L504846,RN Isla Mocha,2015-04-06,25.0,-38.357811,-73.9098358,False,-1,Bío-Bío
soulap1,Southern Lapwing,Vanellus chilensis,L717821,Punta Arenas--Muelle viejo,2015-04-07,2.0,-53.1660704,-70.9000111,False,-1,Magallanes
impcor1,Imperial Cormorant,Leucocarbo atriceps,L717821,Punta Arenas--Muelle viejo,2015-04-07,420.0,-53.1660704,-70.9000111,False,-1,Magallanes
grhowl2,Lesser Horned Owl,Bubo magellanicus,L3549945,CL-Los Lagos - -41.6677x-73.1881 - 08-04-2015 17:34,2015-04-07,1.0,-41.667734,-73.188084,True,-1,Los Lagos
gyhsif1,Gray-hooded Sierra Finch,Phrygilus gayi,L1147111,Farellones,2015-04-07,10.0,-33.3520394,-70.3129292,False,-1,Región Metropolitana de Santiago
grhowl2,Lesser Horned Owl,Bubo magellanicus,L3244076,Shangri-la,2015-04-08,2.0,-36.8760861,-71.469833,False,-1,Ñuble
fragul,Franklin's Gull,Leucophaeus pipixcan,L861844,Humedal Urbano Cartagena,2015-04-08,6.0,-33.5350454,-71.6022348,False,-1,Valparaíso
santer1,Sandwich Tern,Thalasseus sandvicensis,L861844,Humedal Urbano Cartagena,2015-04-08,1.0,-33.5350454,-71.6022348,False,-1,Valparaíso
brnowl,Barn Owl,Tyto alba,L3515187,Llico,2015-04-09,6.0,-37.2083691,-73.5906342,True,-1,Bío-Bío
gyhsif1,Gray-hooded Sierra Finch,Phrygilus gayi,L4026975,Loma Linda,2015-04-09,1.0,-33.4357636,-71.6771027,False,-1,Valparaíso
moupar2,Mountain Parakeet,Psilopsiagon aurifrons,L3568499,camino industrial entre PHM y PM,2015-04-09,7.0,-31.7659479,-70.5134994,True,-1,Coquimbo
reccar,Red-crested Cardinal,Paroaria coronata,L3551337,"Parque Uruguay, Santiago",2015-04-09,1.0,-33.4228335,-70.6182142,True,1,Región Metropolitana de Santiago
whtgre3,White-tufted Grebe,Rollandia rolland,L635297,Humedal de Putú,2015-04-09,97.0,-35.1553896,-72.2467804,False,-1,Maule
whttap1,White-throated Tapaculo,Scelorchilus albicollis,L3553811,Cerro El Mauco,2015-04-09,7.0,-33.3333021,-71.2085247,True,-1,Región Metropolitana de Santiago
dutcan1,Dusky-tailed Canastero,Pseudasthenes humicola,L3553811,Cerro El Mauco,2015-04-09,12.0,-33.3333021,-71.2085247,True,-1,Región Metropolitana de Santiago
brnowl,Barn Owl,Tyto alba,L3235679,MN Cueva del Milodón,2015-04-10,2.0,-51.5709587,-72.6113892,False,-1,Magallanes
rulowl1,Rufous-legged Owl,Strix rufipes,L3235679,MN Cueva del Milodón,2015-04-10,3.0,-51.5709587,-72.6113892,False,-1,Magallanes
categr,Cattle Egret,Bubulcus ibis,L572347,Cruce Bahía Azul,2015-04-10,12.0,-52.4948009,-69.5207977,False,-1,Magallanes
siltea1,Silver Teal,Spatula versicolor,L1033151,Laguna Los Palos,2015-04-10,14.0,-52.7358759,-71.0616302,False,-1,Magallanes
whbsee2,White-bellied Seedsnipe,Attagis malouinus,L1033151,Laguna Los Palos,2015-04-10,5.0,-52.7358759,-71.0616302,False,-1,Magallanes
hudgod,Hudsonian Godwit,Limosa haemastica,L633604,Río Reloca--Desembocadura,2015-04-10,7.0,-35.6648974,-72.5976563,False,-1,Maule
blkski,Black Skimmer,Rynchops niger,L633604,Río Reloca--Desembocadura,2015-04-10,740.0,-35.6648974,-72.5976563,False,-1,Maule
whcpin,White-cheeked Pintail,Anas bahamensis,L516540,Río Huasco--Desembocadura,2015-04-10,3.0,-28.4481664,-71.2002039,False,-1,Atacama
snoplo5,Snowy Plover,Charadrius nivosus,L516540,Río Huasco--Desembocadura,2015-04-10,26.0,-28.4481664,-71.2002039,False,-1,Atacama
whfibi,White-faced Ibis,Plegadis chihi,L516540,Río Huasco--Desembocadura,2015-04-10,1.0,-28.4481664,-71.2002039,False,-1,Atacama
ausneg1,Austral Negrito,Lessonia rufa,L516540,Río Huasco--Desembocadura,2015-04-10,8.0,-28.4481664,-71.2002039,False,-1,Atacama
hrshaw,Harris's Hawk,Parabuteo unicinctus,L674599,Antofagasta,2015-04-11,1.0,-23.6495561,-70.3948975,False,-1,Antofagasta
flystd1,Flying Steamer-Duck,Tachyeres patachonicus,L1495588,"Agua Fresca, Km. 24.5 Sur (Sector Rio Sta Maria)",2015-04-11,96.0,-53.3669937,-70.9730461,True,-1,Magallanes
rucdot1,Rufous-chested Dotterel,Charadrius modestus,L1033516,Río Tres Brazos--Desembocadura,2015-04-11,48.0,-53.2722198,-70.9444284,False,-1,Magallanes
giahum1,Giant Hummingbird,Patagona gigas,L798863,RN Laguna Torca,2015-04-11,1.0,-34.7716527,-72.0419025,False,-1,Maule
rngtyr1,Rufous-naped Ground-Tyrant,Muscisaxicola rufivertex,L811659,MN El Morado,2015-04-11,2.0,-33.7945557,-70.0733757,False,-1,Región Metropolitana de Santiago
gyhsif1,Gray-hooded Sierra Finch,Phrygilus gayi,L811659,MN El Morado,2015-04-11,10.0,-33.7945557,-70.0733757,False,-1,Región Metropolitana de Santiago
whttap1,White-throated Tapaculo,Scelorchilus albicollis,L3566276,Paposo,2015-04-11,5.0,-25.0297985,-70.4553397,True,-1,Antofagasta
demwir1,Des Murs's Wiretail,Sylviorthorhynchus desmursii,L635821,PN Alerce Andino--Sector norte,2015-04-11,6.0,-41.50859,-72.62165,False,-1,Los Lagos
uplsan,Upland Sandpiper,Bartramia longicauda,L1936528,"Jardines del Norte IV, Antofagasta",2015-04-12,1.0,-23.5698334,-70.3952515,True,-1,Antofagasta
torduc1,Torrent Duck,Merganetta armata,L3560896,Río Maipo (Rafting),2015-04-12,6.0,-33.7001004,-70.3353953,True,-1,Región Metropolitana de Santiago
flistd1,Flightless Steamer-Duck,Tachyeres pteneres,L3574906,Isla Apaio--Estero Pellu,2015-04-12,22.0,-42.5950004,-73.2164097,False,-1,Los Lagos
redkno,Red Knot,Calidris canutus,L3574906,Isla Apaio--Estero Pellu,2015-04-12,13.0,-42.5950004,-73.2164097,False,-1,Los Lagos
whbmoc1,White-banded Mockingbird,Mimus triurus,L3483437,Quebrada del León,2015-04-12,1.0,-26.9594097,-70.7374907,False,-1,Atacama
speduc2,Spectacled Duck,Speculanas specularis,L3562255,Lake Figueroa,2015-04-12,13.0,-51.381707,-72.443112,True,-1,Magallanes
pedpet1,Peruvian Diving-Petrel,Pelecanoides garnotii,L863888,Loanco,2015-04-12,27.0,-35.5835656,-72.6226759,False,-1,Maule
relcor1,Red-legged Cormorant,Poikilocarbo gaimardi,L863888,Loanco,2015-04-12,31.0,-35.5835656,-72.6226759,False,-1,Maule
creduc1,Crested Duck,Lophonetta specularioides,L570521,Puerto Natales,2015-04-12,130.0,-51.729899,-72.4982,False,-1,Magallanes
gyhsif1,Gray-hooded Sierra Finch,Phrygilus gayi,L990051,Cuesta La Dormida,2015-04-12,2.0,-33.0550042,-71.0042953,False,-1,Región Metropolitana de Santiago
siltea1,Silver Teal,Spatula versicolor,L1033151,Laguna Los Palos,2015-04-12,20.0,-52.7358759,-71.0616302,False,-1,Magallanes
batear1,Band-tailed Earthcreeper,Ochetorhynchus phoenicurus,L3568621,"Patagonian Steepe before Las Chinas, Route 9",2015-04-13,3.0,-50.9254905,-72.36763,True,-1,Magallanes
whtcar1,White-throated Caracara,Daptrius albogularis,L824302,Sierra Baguales,2015-04-13,6.0,-50.7894427,-72.4143219,False,-1,Magallanes
ruhgoo1,Ruddy-headed Goose,Chloephaga rubidiceps,L1032990,Parque Pingüino Rey (Desembocadura Río Marazzi),2015-04-13,11.0,-53.4619671,-69.3105555,False,-1,Magallanes
rucdot1,Rufous-chested Dotterel,Charadrius modestus,L1032990,Parque Pingüino Rey (Desembocadura Río Marazzi),2015-04-13,70.0,-53.4619671,-69.3105555,False,-1,Magallanes
kinpen1,King Penguin,Aptenodytes patagonicus,L1032990,Parque Pingüino Rey (Desembocadura Río Marazzi),2015-04-13,50.0,-53.4619671,-69.3105555,False,-1,Magallanes
