speciesCode,comName,sciName,locId,locName,obsDt,howMany,lat,lng,locationPrivate,exoticCategory,region
whttap1,White-throated Tapaculo,Scelorchilus albicollis,L672968,Estero Puangue (Cerro Viejo),2018-01-01 19:57,6.0,-33.2168522,-71.1630392,False,-1,Valparaíso
bcbeag1,Black-chested Buzzard-Eagle,Geranoaetus melanoleucus,L6663924,"Panguipulli, Región de los Ríos, CL (-39,516, -71,751)",2018-01-01 19:09,1.0,-39.5159681,-71.7512844,True,-1,Los Ríos
margod,Marbled Godwit,Limosa fedoa,L2869629,Estero Tongoy,2018-01-01 18:46,1.0,-30.2601051,-71.4792395,True,-1,Coquimbo
gyhsif1,Gray-hooded Sierra Finch,Phrygilus gayi,L1557345,Caleu - Lo Marín,2018-01-01 18:40,3.0,-32.9888318,-70.9765152,True,-1,Región Metropolitana de Santiago
semsan,Semipalmated Sandpiper,Calidris pusilla,L6649619,"1532 Avenida Grecia, Antofagasta, Región de Antofagasta, CL (-23.661, -70.403)",2018-01-01 18:24,2.0,-23.6609291,-70.4033861,True,-1,Antofagasta
yebpin1,Yellow-billed Pintail,Anas georgica,L4606851,Campo Caipulli,2018-01-01 16:40,10.0,-40.6481502,-72.754705,True,-1,Los Lagos
gyfcin1,Gray-flanked Cinclodes,Cinclodes oustaleti,L6663905,"Laguna Azul (-39,543, -71,748)",2018-01-01 16:24,1.0,-39.5434333,-71.7481048,True,-1,Los Ríos
brnboo,Brown Booby,Sula leucogaster,L7142196,"CL-Valparaíso-Hanga Roa-Islas del Océano - -27,1425x-109,4268",2018-01-02 19:30,1.0,-27.142453,-109.426754,True,-1,Valparaíso
wepdov1,West Peruvian Dove,Zenaida meloda,L6656030,"(-33,901, -70,654)",2018-01-02 16:55,3.0,-33.9011591,-70.6542802,True,-1,Región Metropolitana de Santiago
ruhgoo1,Ruddy-headed Goose,Chloephaga rubidiceps,L6687700,Oazy Harbour-acceso San Jorge,2018-01-02 15:01,40.0,-52.583194,-70.356604,True,-1,Magallanes
thbsis1,Thick-billed Siskin,Spinus crassirostris,L594542,Embalse El Yeso--Vegas superiores,2018-01-02 14:30,2.0,-33.6250545,-70.0251281,False,-1,Región Metropolitana de Santiago
juffir1,Juan Fernandez Firecrown,Sephanoides fernandensis,L5240320,PN Archipiélago Juan Fernández--Plazoleta el Yunque,2018-01-02 14:00,3.0,-33.6495471,-78.8425148,False,-1,Valparaíso
blupet1,Blue Petrel,Halobaena caerulea,L6699177,"(-56.8991,-66.5897)",2018-01-02 11:30,6.0,-56.899055,-66.589681,True,-1,Magallanes
gybsht1,Gray-bellied Shrike-Tyrant,Agriornis micropterus,L3568114,PN Torres del Paine--Trek de Los Cuernos a Chileno/Las Torres,2018-01-02 10:10,2.0,-51.0013062,-72.9237914,False,-1,Magallanes
snoshe2,Snowy Sheathbill,Chionis albus,L3239168,MN Los Pingüinos--Isla Marta,2018-01-02 10:00,2.0,-52.8471046,-70.5799913,False,-1,Magallanes
wanalb,Wandering Albatross,Diomedea exulans,L6699178,"(-57.2887,-66.3484)",2018-01-02 07:15,2.0,-57.288665,-66.348421,True,-1,Magallanes
royalb1,Royal Albatross,Diomedea epomophora,L571146,Ferry Punta Arenas-Porvenir (Pelágico),2018-01-03 20:24,1.0,-53.233989,-70.6777954,False,-1,Magallanes
rucdot1,Rufous-chested Dotterel,Charadrius modestus,L791057,Estero El Culebrón--Desembocadura,2018-01-03 19:20,1.0,-29.9617015,-71.3218206,False,-1,Coquimbo
sctear1,Scale-throated Earthcreeper,Upucerthia dumetaria,L1153126,Valle de Azapa--Tranque Sobraya,2018-01-03 17:47,1.0,-18.5752738,-70.0235939,False,-1,Arica y Parinacota
rudtur,Ruddy Turnstone,Arenaria interpres,L673642,Río Elqui--Desembocadura,2018-01-03 12:45,85.0,-29.8933968,-71.2727094,False,-1,Coquimbo
soasni3,Magellanic Snipe,Gallinago magellanica,L4153100,"Lagunillas, caminata a MO Las Tetonas",2018-01-03 11:00,1.0,-33.6079798,-70.2478909,True,-1,Región Metropolitana de Santiago
yelpip3,Peruvian Pipit,Anthus peruvianus,L5959426,humedal del río lluta,2018-01-03 09:00,1.0,-18.3880855,-70.3526688,True,-1,Arica y Parinacota
osprey,Osprey,Pandion haliaetus,L11222680,Guala,2018-01-03 08:20,1.0,-22.8392867,-70.2978889,True,-1,Antofagasta
rulowl1,Rufous-legged Owl,Strix rufipes,L4461369,Lomas de El Manzano,2018-01-03 04:00,1.0,-33.5798597,-70.3935436,False,-1,Región Metropolitana de Santiago
redjun,Red Junglefowl,Gallus gallus,L6295308,Costanera de Castro,2018-01-04 19:19,7.0,-42.4781748,-73.7557442,True,1,Los Lagos
buwtea,Blue-winged Teal,Spatula discors,L668852,Río Lluta--Desembocadura,2018-01-04 19:15,1.0,-18.4165392,-70.3224081,False,-1,Arica y Parinacota
kerpet,Kermadec Petrel,Pterodroma neglecta,L5240271,Navegación Bahía del Padre hacia Bahía Cumberland,2018-01-04 18:00,2.0,-33.6093298,-78.9019632,False,-1,Valparaíso
mallar3,Mallard,Anas platyrhynchos,L4968603,Laguna de Zapallar ,2018-01-05 20:43,15.0,-32.632934,-71.425738,True,1,Valparaíso
pafear1,Patagonian Forest Earthcreeper,Upucerthia saturatior,L4785622,Camino Liucura - Icalma,2018-01-05 19:00,4.0,-38.7214624,-71.1130896,True,-1,Araucanía
moucar1,Mountain Caracara,Daptrius megalopterus,L5094181,Paso Pino Hachado,2018-01-05 18:17,2.0,-38.6441598,-70.9391928,False,-1,Araucanía
margod,Marbled Godwit,Limosa fedoa,L636004,Estero Tongoy--Desembocadura,2018-01-05 16:30,1.0,-30.25497,-71.49359,False,-1,Coquimbo
rngtyr1,Rufous-naped Ground-Tyrant,Muscisaxicola rufivertex,L1087750,Calderilla,2018-01-05 14:00,1.0,-27.0909184,-70.85289,False,-1,Atacama
gybsht1,Gray-bellied Shrike-Tyrant,Agriornis micropterus,L6670763,"(-50.9673,-72.7878)",2018-01-05 09:46,1.0,-50.967303,-72.787781,True,-1,Magallanes
macpen1,Macaroni Penguin,Eudyptes chrysolophus,L6687937,Barnevelt,2018-01-05 08:00,1.0,-55.8130021,-66.7990637,True,-1,Magallanes
rocpen1,Southern Rockhopper Penguin,Eudyptes chrysocome,L6687937,Barnevelt,2018-01-05 08:00,600.0,-55.8130021,-66.7990637,True,-1,Magallanes
strcar1,Striated Caracara,Daptrius australis,L6687937,Barnevelt,2018-01-05 08:00,1.0,-55.8130021,-66.7990637,True,-1,Magallanes
blacin1,Blackish Cinclodes,Cinclodes antarcticus,L6687937,Barnevelt,2018-01-05 08:00,2.0,-55.8130021,-66.7990637,True,-1,Magallanes
gyhsif1,Gray-hooded Sierra Finch,Phrygilus gayi,L6679936,"Algarrobo, Región de Valparaíso, CL (-33,278, -71,555)",2018-01-06 21:06,2.0,-33.2776369,-71.5545595,True,-1,Valparaíso
speduc2,Spectacled Duck,Speculanas specularis,L6682343,Río Lonquimay -- desde puente la puntilla al pueblo,2018-01-06 18:00,12.0,-38.5138002,-71.4037855,True,-1,Araucanía
comter,Common Tern,Sterna hirundo,L861844,Humedal Urbano Cartagena,2018-01-06 16:00,12.0,-33.5350454,-71.6022348,False,-1,Valparaíso
santer1,Sandwich Tern,Thalasseus sandvicensis,L861844,Humedal Urbano Cartagena,2018-01-06 16:00,2.0,-33.5350454,-71.6022348,False,-1,Valparaíso
mallar3,Mallard,Anas platyrhynchos,L815484,Sausalito,2018-01-06 15:00,3.0,-33.0131979,-71.5365314,False,1,Valparaíso
bhsfin1,Black-hooded Sierra Finch,Phrygilus atriceps,L6692065,Quebrada El Calvario--Vega La Piedra,2018-01-06 14:28,7.0,-29.4021263,-70.4748943,False,-1,Coquimbo
twbplo1,Two-banded Plover,Charadrius falklandicus,L2347815,SN Bahía Lomas--Acceso este,2018-01-06 11:55,300.0,-52.6992739,-69.0952492,False,-1,Magallanes
redkno,Red Knot,Calidris canutus,L2347815,SN Bahía Lomas--Acceso este,2018-01-06 11:55,2000.0,-52.6992739,-69.0952492,False,-1,Magallanes
corpip1,Correndera Pipit,Anthus correndera,L606243,Humedal Tres Puentes,2018-01-06 10:50,12.0,-53.1162328,-70.8813,False,-1,Magallanes
sander,Sanderling,Calidris alba,L6676269,"34 Calle del Mar, Rocas de Santo Domingo, Región de Valparaíso, CL (-33,626, -71,632)",2018-01-06 10:30,451.0,-33.626396,-71.6324754,True,-1,Valparaíso
leasan,Least Sandpiper,Calidris minutilla,L6676269,"34 Calle del Mar, Rocas de Santo Domingo, Región de Valparaíso, CL (-33,626, -71,632)",2018-01-06 10:30,2.0,-33.626396,-71.6324754,True,-1,Valparaíso
semsan,Semipalmated Sandpiper,Calidris pusilla,L6676269,"34 Calle del Mar, Rocas de Santo Domingo, Región de Valparaíso, CL (-33,626, -71,632)",2018-01-06 10:30,20.0,-33.626396,-71.6324754,True,-1,Valparaíso
ticdor1,Ticking Doradito,Pseudocolopteryx citreola,L6676269,"34 Calle del Mar, Rocas de Santo Domingo, Región de Valparaíso, CL (-33,626, -71,632)",2018-01-06 10:30,1.0,-33.626396,-71.6324754,True,-1,Valparaíso
rocpen1,Southern Rockhopper Penguin,Eudyptes chrysocome,L6681309,"(-56.9149,-66.8591)",2018-01-06 08:45,2.0,-56.914947,-66.859082,True,-1,Magallanes
royalb1,Royal Albatross,Diomedea epomophora,L6681309,"(-56.9149,-66.8591)",2018-01-06 08:45,2.0,-56.914947,-66.859082,True,-1,Magallanes
wanalb,Wandering Albatross,Diomedea exulans,L6681309,"(-56.9149,-66.8591)",2018-01-06 08:45,1.0,-56.914947,-66.859082,True,-1,Magallanes
wbspet1,White-bellied Storm-Petrel,Fregetta grallaria,L5240429,Isla Robinson Crusoe--Pelágico,2018-01-06 07:25,10.0,-33.6051837,-78.7659216,False,-1,Valparaíso
kerpet,Kermadec Petrel,Pterodroma neglecta,L5240429,Isla Robinson Crusoe--Pelágico,2018-01-06 07:25,2.0,-33.6051837,-78.7659216,False,-1,Valparaíso
jufpet,Juan Fernandez Petrel,Pterodroma externa,L5240429,Isla Robinson Crusoe--Pelágico,2018-01-06 07:25,700.0,-33.6051837,-78.7659216,False,-1,Valparaíso
stepet,Stejneger's Petrel,Pterodroma longirostris,L5240429,Isla Robinson Crusoe--Pelágico,2018-01-06 07:25,1.0,-33.6051837,-78.7659216,False,-1,Valparaíso
bbspet1,Black-bellied Storm-Petrel,Fregetta tropica,L6681302,"(-57.3312,-66.6664)",2018-01-06 06:44,1.0,-57.331174,-66.666434,True,-1,Magallanes
blupet1,Blue Petrel,Halobaena caerulea,L6681302,"(-57.3312,-66.6664)",2018-01-06 06:44,55.0,-57.331174,-66.666434,True,-1,Magallanes
musduc,Muscovy Duck,Cairina moschata,L551449,Viña del Mar,2018-01-06,1.0,-33.0146853,-71.5532684,False,1,Valparaíso
wepdov1,West Peruvian Dove,Zenaida meloda,L5426557,Santa Teresita de Los Andes,2018-01-07 16:00,3.0,-33.0305179,-70.696249,True,-1,Región Metropolitana de Santiago
scrcow1,Screaming Cowbird,Molothrus rufoaxillaris,L1997312,Agua Buena,2018-01-07 15:00,4.0,-34.6528562,-70.850063,True,-1,Libertador General Bernardo O'Higgins
kinpen1,King Penguin,Aptenodytes patagonicus,L1032990,Parque Pingüino Rey (Desembocadura Río Marazzi),2018-01-07 14:30,84.0,-53.4619671,-69.3105555,False,-1,Magallanes
pattin1,Patagonian Tinamou,Tinamotis ingoufi,L1297471,Laguna salobre S/N,2018-01-07 12:09,3.0,-52.4796961,-69.8345947,True,-1,Magallanes
sander,Sanderling,Calidris alba,L6681583,"2932-3014 Avenida Carlos Alessandri, Algarrobo, Región de Valparaíso, CL (-33,365, -71,677)",2018-01-07 11:28,500.0,-33.36488,-71.6769557,True,-1,Valparaíso
gyhsif1,Gray-hooded Sierra Finch,Phrygilus gayi,L827540,MN El Morado--Laguna Morales,2018-01-07 11:00,15.0,-33.7831067,-70.0728607,False,-1,Región Metropolitana de Santiago
saffin,Saffron Finch,Sicalis flaveola,L6595398,Frente entrada de Sago Fisur,2018-01-07 10:30,3.0,-40.5737855,-73.1102103,True,-1,Los Lagos
gramin1,Grayish Miner,Geositta maritima,L6691336,Antofagasta carrizo,2018-01-07 10:05,7.0,-23.6958254,-70.383482,True,-1,Antofagasta
wespet1,Westland Petrel,Procellaria westlandica,L571146,Ferry Punta Arenas-Porvenir (Pelágico),2018-01-07 09:30,1.0,-53.233989,-70.6777954,False,-1,Magallanes
juffir1,Juan Fernandez Firecrown,Sephanoides fernandensis,L5240320,PN Archipiélago Juan Fernández--Plazoleta el Yunque,2018-01-07 08:20,9.0,-33.6495471,-78.8425148,False,-1,Valparaíso
jfttyr1,Juan Fernandez Tit-Tyrant,Anairetes fernandezianus,L5240320,PN Archipiélago Juan Fernández--Plazoleta el Yunque,2018-01-07 08:20,3.0,-33.6495471,-78.8425148,False,-1,Valparaíso
willet1,Willet,Tringa semipalmata,L629582,Rocuant--Canal El Morro,2018-01-07 07:34,1.0,-36.7354449,-73.0929422,False,-1,Bío-Bío
andduc1,Andean Duck,Oxyura ferruginea,L3638924,Laguna San Pedro,2018-01-08 19:52,18.0,-38.439279,-71.333663,False,-1,Araucanía
ameoys,American Oystercatcher,Haematopus palliatus,L6696799,Fundo Los Leones Lodge--restricted access,2018-01-08 18:41,2.0,-43.791239,-72.946411,True,-1,Aisén del General Carlos Ibáñez del Campo
jfttyr1,Juan Fernandez Tit-Tyrant,Anairetes fernandezianus,L6728085,PN Archipiélago Juan Fernández--Sendero Sal Si Puedes,2018-01-08 18:00,1.0,-33.6288296,-78.8375553,False,-1,Valparaíso
wbspet1,White-bellied Storm-Petrel,Fregetta grallaria,L5240429,Isla Robinson Crusoe--Pelágico,2018-01-08 16:50,70.0,-33.6051837,-78.7659216,False,-1,Valparaíso
kerpet,Kermadec Petrel,Pterodroma neglecta,L5240429,Isla Robinson Crusoe--Pelágico,2018-01-08 16:50,1.0,-33.6051837,-78.7659216,False,-1,Valparaíso
jufpet,Juan Fernandez Petrel,Pterodroma externa,L5240429,Isla Robinson Crusoe--Pelágico,2018-01-08 16:50,20.0,-33.6051837,-78.7659216,False,-1,Valparaíso
pifshe,Pink-footed Shearwater,Ardenna creatopus,L5240429,Isla Robinson Crusoe--Pelágico,2018-01-08 16:50,1500.0,-33.6051837,-78.7659216,False,-1,Valparaíso
ruhgoo1,Ruddy-headed Goose,Chloephaga rubidiceps,L1087903,MN Canquén Colorado,2018-01-08 15:10,12.0,-53.6514552,-70.9430552,False,-1,Magallanes
redkno,Red Knot,Calidris canutus,L516521,Caulín,2018-01-08 13:22,56.0,-41.8259378,-73.6275078,False,-1,Los Lagos
gyhalb,Gray-headed Albatross,Thalassarche chrysostoma,L7672845,"CL-Magallanes y La Antártica Chilena-Oceano Pacifico (-54,4563,-69,0192)",2018-01-08 12:15,1.0,-54.456348,-69.019163,True,-1,Magallanes
whcpin,White-cheeked Pintail,Anas bahamensis,L793367,SN Humedal Río Copiapó--Desembocadura,2018-01-08 09:30,1.0,-27.3177895,-70.9263611,False,-1,Atacama
hudgod,Hudsonian Godwit,Limosa haemastica,L636004,Estero Tongoy--Desembocadura,2018-01-09 20:26,6.0,-30.25497,-71.49359,False,-1,Coquimbo
margod,Marbled Godwit,Limosa fedoa,L636004,Estero Tongoy--Desembocadura,2018-01-09 20:26,1.0,-30.25497,-71.49359,False,-1,Coquimbo
rebtro,Red-billed Tropicbird,Phaethon aethereus,L6701012,143 Millas,2018-01-09 19:04,1.0,-33.240081,-74.455522,True,-1,Libertador General Bernardo O'Higgins
ruhgoo1,Ruddy-headed Goose,Chloephaga rubidiceps,L1087903,MN Canquén Colorado,2018-01-09 16:11,27.0,-53.6514552,-70.9430552,False,-1,Magallanes
parjae,Parasitic Jaeger,Stercorarius parasiticus,L6701047,166 Millas,2018-01-09 16:04,3.0,-33.274695,-74.920559,True,-1,Libertador General Bernardo O'Higgins
lotjae,Long-tailed Jaeger,Stercorarius longicaudus,L6701070,190 Millas,2018-01-09 13:09,4.0,-33.310859,-75.38529,True,-1,Valparaíso
wbspet1,White-bellied Storm-Petrel,Fregetta grallaria,L6701070,190 Millas,2018-01-09 13:09,2.0,-33.310859,-75.38529,True,-1,Valparaíso
gyhsif1,Gray-hooded Sierra Finch,Phrygilus gayi,L717563,Zapallar,2018-01-09 11:00,1.0,-32.5548076,-71.4580822,False,-1,Valparaíso
robpoc1,Rosy-billed Pochard,Netta peposaca,L10390689,La Serena,2018-01-09 09:00,1.0,-29.9481055,-71.2946276,True,-1,Coquimbo
saffin,Saffron Finch,Sicalis flaveola,L6704340,Hotel Ancud,2018-01-09 08:30,1.0,-41.8621782,-73.8313007,True,-1,Los Lagos
wvspet1,Elliot's Storm-Petrel,Oceanites gracilis,L6701102,242 Millas,2018-01-09 07:08,1.0,-33.408463,-76.403826,True,-1,Valparaíso
whbmoc1,White-banded Mockingbird,Mimus triurus,L862580,Isla Santa María,2018-01-10 16:00,1.0,-37.0348991,-73.5074615,False,-1,Bío-Bío
redkno,Red Knot,Calidris canutus,L8549740,"(-41.8256,-73.6318)",2018-01-10 12:40,90.0,-41.825578,-73.631802,True,-1,Los Lagos
pedpet1,Peruvian Diving-Petrel,Pelecanoides garnotii,L862580,Isla Santa María,2018-01-10 11:00,300.0,-37.0348991,-73.5074615,False,-1,Bío-Bío
fotfly,Fork-tailed Flycatcher,Tyrannus savana,L6764010,DGM,2018-01-10 10:30,1.0,-23.425936,-68.7992419,True,-1,Antofagasta
santer1,Sandwich Tern,Thalasseus sandvicensis,L504553,SN Humedal Río Maipo--Desembocadura,2018-01-10 08:15,2.0,-33.6198013,-71.6275442,False,-1,Valparaíso
stbbit1,Stripe-backed Bittern,Ixobrychus involucris,L570658,SN Laguna Batuco,2018-01-10 08:15,2.0,-33.2064427,-70.8279133,False,-1,Región Metropolitana de Santiago
ticdor1,Ticking Doradito,Pseudocolopteryx citreola,L504553,SN Humedal Río Maipo--Desembocadura,2018-01-10 08:15,2.0,-33.6198013,-71.6275442,False,-1,Valparaíso
grygul,Gray Gull,Leucophaeus modestus,L6725006,"Diego de Almagro, III Región, CL (-26.242, -69.984)",2018-01-11 23:30,1.0,-26.2417499,-69.98444,True,-1,Atacama
soumar,Southern Martin,Progne elegans,L907103,Laguna Jara,2018-01-11 19:15,1.0,-38.4531854,-71.2938881,False,-1,Araucanía
redjun,Red Junglefowl,Gallus gallus,L6295308,Costanera de Castro,2018-01-11 19:03,6.0,-42.4781748,-73.7557442,True,1,Los Lagos
demwir1,Des Murs's Wiretail,Sylviorthorhynchus desmursii,L6704298,"Unnamed Road, Queilén, X Región, CL (-42,93, -73,433)",2018-01-11 17:24,14.0,-42.9303869,-73.4333756,True,-1,Los Lagos
chitin1,Chilean Tinamou,Nothoprocta perdicaria,L774555,Campus Sur -  Universidad de Chile,2018-01-11 15:59,1.0,-33.5708994,-70.6356955,False,-1,Región Metropolitana de Santiago
whtkit,White-tailed Kite,Elanus leucurus,L774555,Campus Sur -  Universidad de Chile,2018-01-11 15:59,2.0,-33.5708994,-70.6356955,False,-1,Región Metropolitana de Santiago
wrlrus1,Wren-like Rushbird,Phleocryptes melanops,L2466880,Río Loa--Puente Ruta 24,2018-01-11 15:50,3.0,-22.2781364,-69.5607519,False,-1,Antofagasta
kinpen1,King Penguin,Aptenodytes patagonicus,L1032990,Parque Pingüino Rey (Desembocadura Río Marazzi),2018-01-11 15:49,109.0,-53.4619671,-69.3105555,False,-1,Magallanes
rubmin1,Rufous-banded Miner,Geositta rufipennis,L6704349,"Ruta 9, Torres de Paine, Región de Magallanes y de la Antártica Chilena, CL (-50.82, -72.404)",2018-01-11 14:02,3.0,-50.8201128,-72.4035694,True,-1,Magallanes
margod,Marbled Godwit,Limosa fedoa,L636004,Estero Tongoy--Desembocadura,2018-01-11 14:00,1.0,-30.25497,-71.49359,False,-1,Coquimbo
juffir1,Juan Fernandez Firecrown,Sephanoides fernandensis,L5240350,PN Archipiélago Juan Fernández--Mirador de Selkirk,2018-01-11 12:00,8.0,-33.6367657,-78.8515618,False,-1,Valparaíso
jfttyr1,Juan Fernandez Tit-Tyrant,Anairetes fernandezianus,L5240350,PN Archipiélago Juan Fernández--Mirador de Selkirk,2018-01-11 12:00,5.0,-33.6367657,-78.8515618,False,-1,Valparaíso
wanalb,Wandering Albatross,Diomedea exulans,L6706401,"CL (-50.697, -74.604)",2018-01-11 08:53,3.0,-50.6965587,-74.6036063,True,-1,Magallanes
grygul,Gray Gull,Leucophaeus modestus,L6791266,"Pampa Indio Muerto, norte Diego de Almagro",2018-01-12 23:30,1.0,-26.2091237,-69.9275064,True,-1,Atacama
mallar3,Mallard,Anas platyrhynchos,L6707254,"CL-Valparaíso-Puchuncaví (-32,6316,-71,4213)",2018-01-12 20:22,10.0,-32.631581,-71.421277,True,1,Valparaíso
wepdov1,West Peruvian Dove,Zenaida meloda,L6719750,Inicio Cuesta Chacabuco,2018-01-12 18:15,1.0,-33.0133778,-70.7056046,True,-1,Región Metropolitana de Santiago
semplo,Semipalmated Plover,Charadrius semipalmatus,L516521,Caulín,2018-01-12 16:30,3.0,-41.8259378,-73.6275078,False,-1,Los Lagos
impcor1,Imperial Cormorant,Leucocarbo atriceps,L770027,Pilolcura,2018-01-13 16:00,0.0,-39.6361666,-73.3207798,False,-1,Los Ríos
gybsht1,Gray-bellied Shrike-Tyrant,Agriornis micropterus,L835069,Laguna del Maule,2018-01-13 16:00,2.0,-36.0565381,-70.4971291,False,-1,Maule
whcpin,White-cheeked Pintail,Anas bahamensis,L5082246,San Pedro de Atacama--Estanque,2018-01-13 15:45,2.0,-22.9316904,-68.1950462,False,-1,Antofagasta
whcswi,White-collared Swift,Streptoprocne zonaris,L3098933,Ruta CH-115--Sector Saltos del Maule,2018-01-13 13:49,7.0,-35.9588303,-70.5706894,False,-1,Maule
redkno,Red Knot,Calidris canutus,L6710507,Estuario y desembocadura Río Maipo,2018-01-13 11:30,1.0,-33.619703,-71.630928,True,-1,Valparaíso
buwtea,Blue-winged Teal,Spatula discors,L668852,Río Lluta--Desembocadura,2018-01-13 08:00,1.0,-18.4165392,-70.3224081,False,-1,Arica y Parinacota
soater1,South American Tern,Sterna hirundinacea,L6765664,"AR-Tierra del Fuego-Ushuaia (-54.9152,-67.3825)",2018-01-14 21:33,2500.0,-54.91525,-67.382499,True,-1,Magallanes
impcor1,Imperial Cormorant,Leucocarbo atriceps,L6765664,"AR-Tierra del Fuego-Ushuaia (-54.9152,-67.3825)",2018-01-14 21:33,7500.0,-54.91525,-67.382499,True,-1,Magallanes
gragoo,Graylag Goose,Anser anser,L6718052,"Cucao, Villa",2018-01-14 17:06,12.0,-42.6317018,-74.1043337,True,1,Los Lagos
amgplo,American Golden-Plover,Pluvialis dominica,L4905604,Lepihué,2018-01-14 16:25,1.0,-41.5931514,-73.5721302,False,-1,Los Lagos
kinpen1,King Penguin,Aptenodytes patagonicus,L1032990,Parque Pingüino Rey (Desembocadura Río Marazzi),2018-01-14 15:42,92.0,-53.4619671,-69.3105555,False,-1,Magallanes
margod,Marbled Godwit,Limosa fedoa,L636004,Estero Tongoy--Desembocadura,2018-01-14 13:55,1.0,-30.25497,-71.49359,False,-1,Coquimbo
semsan,Semipalmated Sandpiper,Calidris pusilla,L636004,Estero Tongoy--Desembocadura,2018-01-14 13:55,1.0,-30.25497,-71.49359,False,-1,Coquimbo
pafear1,Patagonian Forest Earthcreeper,Upucerthia saturatior,L3344678,PN Radal Siete Tazas--El Bolsón,2018-01-14 13:00,4.0,-35.497352,-70.9038875,False,-1,Maule
bulshe,Buller's Shearwater,Ardenna bulleri,L6718925,Chañaral Whale Watch,2018-01-14 11:36,4.0,-29.077094,-71.492068,True,-1,Atacama
pumstp1,Pincoya Storm-Petrel,Oceanites pincoyae,L6722412,"Canal Moraleda, Aysen, 44°04.4 S 073°20.2 W",2018-01-14 10:20,1.0,-44.0733333,-73.3366667,True,-1,Aisén del General Carlos Ibáñez del Campo
yelpip3,Peruvian Pipit,Anthus peruvianus,L5959426,humedal del río lluta,2018-01-14 09:00,1.0,-18.3880855,-70.3526688,True,-1,Arica y Parinacota
gyhsif1,Gray-hooded Sierra Finch,Phrygilus gayi,L3029056,PN Gomez Carreño,2018-01-15 15:00,2.0,-32.9874278,-71.5156746,False,-1,Valparaíso
blupet1,Blue Petrel,Halobaena caerulea,L6765694,"South Atlantic Ocean (-57.6212,-64.2320)",2018-01-15 13:04,5.0,-57.621235,-64.231958,True,-1,Magallanes
royalb1,Royal Albatross,Diomedea epomophora,L6765689,"South Atlantic Ocean (-56.9678,-64.8056)",2018-01-15 09:46,2.0,-56.967768,-64.805639,True,-1,Magallanes
shyalb2,Chatham Albatross,Thalassarche eremita,L570174,Quintero--Pelágico,2018-01-15 07:00,1.0,-32.7693779,-71.5838242,False,-1,Valparaíso
bbspet1,Black-bellied Storm-Petrel,Fregetta tropica,L6765675,"South Atlantic Ocean (-56.2789,-65.3940)",2018-01-15 06:06,1.0,-56.278899,-65.393985,True,-1,Magallanes
gragoo,Graylag Goose,Anser anser,L6222237,Laguna Quinched,2018-01-16 20:20,1.0,-42.5663566,-73.7707257,False,1,Los Lagos
gyhsif1,Gray-hooded Sierra Finch,Phrygilus gayi,L7212186,CL - Tupungato route - Aguas Buenas,2018-01-16 19:30,12.0,-33.3872442,-69.9398232,True,-1,Región Metropolitana de Santiago
margod,Marbled Godwit,Limosa fedoa,L636004,Estero Tongoy--Desembocadura,2018-01-16 19:13,1.0,-30.25497,-71.49359,False,-1,Coquimbo
speduc2,Spectacled Duck,Speculanas specularis,L2993802,Rio Pichoy,2018-01-16 18:08,8.0,-39.6928894,-73.0962789,False,-1,Los Ríos
barswa,Barn Swallow,Hirundo rustica,L2993802,Rio Pichoy,2018-01-16 18:08,25.0,-39.6928894,-73.0962789,False,-1,Los Ríos
blupet1,Blue Petrel,Halobaena caerulea,L7402384,"(-57.1407,-66.3170)",2018-01-16 10:49,4.0,-57.140696,-66.316958,True,-1,Magallanes
btsfin1,Band-tailed Sierra Finch,Rhopospina alaudina,L3514054,"Brea, Ruta B-902",2018-01-16 10:07,6.0,-25.5022883,-70.4115044,False,-1,Antofagasta
bbspet1,Black-bellied Storm-Petrel,Fregetta tropica,L7402382,"(-56.4475,-66.4287)",2018-01-16 08:00,2.0,-56.447547,-66.428702,True,-1,Magallanes
categr,Cattle Egret,Bubulcus ibis,L6739787,"CH-5, Villa Alegre CL-Maule (-35,7484,-71,6735)",2018-01-17 17:48,750.0,-35.748409,-71.673515,True,-1,Maule
fragul,Franklin's Gull,Leucophaeus pipixcan,L6274693,Estadio Elías Figueroa Brander,2018-01-17 16:51,12000.0,-33.0230586,-71.6385867,False,-1,Valparaíso
blnswa2,Black-necked Swan,Cygnus melancoryphus,L6741337,"CL-Santiago-Buin (-33.7258,-70.6741) Santa Rita winery",2018-01-17 16:03,2.0,-33.725755,-70.674083,True,-1,Región Metropolitana de Santiago
gyhsif1,Gray-hooded Sierra Finch,Phrygilus gayi,L3029056,PN Gomez Carreño,2018-01-17 15:00,2.0,-32.9874278,-71.5156746,False,-1,Valparaíso
wepdov1,West Peruvian Dove,Zenaida meloda,L2022413,Horcón,2018-01-17 14:30,1.0,-32.7113333,-71.4889383,False,-1,Valparaíso
hudgod,Hudsonian Godwit,Limosa haemastica,L6761377,"(-52.6998,-69.0940)",2018-01-17 14:30,300.0,-52.699798,-69.094005,True,-1,Magallanes
redkno,Red Knot,Calidris canutus,L6761377,"(-52.6998,-69.0940)",2018-01-17 14:30,250.0,-52.699798,-69.094005,True,-1,Magallanes
eleter1,Elegant Tern,Thalasseus elegans,L5421596,Grúa Parque Croacia,2018-01-18 15:20,2780.0,-23.6768671,-70.4142,True,-1,Antofagasta
redkno,Red Knot,Calidris canutus,L2347815,SN Bahía Lomas--Acceso este,2018-01-18 14:15,1000.0,-52.6992739,-69.0952492,False,-1,Magallanes
whtcar1,White-throated Caracara,Daptrius albogularis,L6768226,mirador la paciencia,2018-01-18 13:59,2.0,-54.3173563,-68.8173714,True,-1,Magallanes
saffin,Saffron Finch,Sicalis flaveola,L807764,Las Quemas Altas,2018-01-18 12:33,1.0,-40.6284479,-73.117919,False,-1,Los Lagos
chitin1,Chilean Tinamou,Nothoprocta perdicaria,L6765738,Quebrada Martínez- Lote 2 B. C.A. El Manzano,2018-01-18 10:20,23.0,-30.0965365,-71.1915135,True,-1,Coquimbo
crachi1,Crag Chilia,Ochetorhynchus melanurus,L6765738,Quebrada Martínez- Lote 2 B. C.A. El Manzano,2018-01-18 10:20,7.0,-30.0965365,-71.1915135,True,-1,Coquimbo
perter2,Peruvian Tern,Sternula lorata,L12187687,Pampa1,2018-01-18 07:30,2.0,-23.0483408,-70.3547297,True,-1,Antofagasta
royalb1,Royal Albatross,Diomedea epomophora,L6740618,"Drake Passage 18 Jan 2018 - (-56.861, -66.701)",2018-01-18 06:00,8.0,-56.861316,-66.7012962,True,-1,Magallanes
wanalb,Wandering Albatross,Diomedea exulans,L6740618,"Drake Passage 18 Jan 2018 - (-56.861, -66.701)",2018-01-18 06:00,6.0,-56.861316,-66.7012962,True,-1,Magallanes
grygul,Gray Gull,Leucophaeus modestus,L6752487,"Sierra Gorda, Región de Antofagasta, CL (-23.58, -69.866)",2018-01-19 23:08,5.0,-23.5800085,-69.8655246,True,-1,Antofagasta
grhowl2,Lesser Horned Owl,Bubo magellanicus,L6791959,Camino a la leonera,2018-01-19 19:32,1.0,-36.5157025,-71.5587884,True,-1,Ñuble
wespet1,Westland Petrel,Procellaria westlandica,L6749101,"Canal Moraleda (-44.263, -73.262)",2018-01-19 16:03,42.0,-44.2625625,-73.2621831,True,-1,Aisén del General Carlos Ibáñez del Campo
magoys1,Magellanic Oystercatcher,Haematopus leucopodus,L623206,SN Bahía Lomas--Sector oeste,2018-01-19 15:18,800.0,-52.5504711,-69.3086243,False,-1,Magallanes
redkno,Red Knot,Calidris canutus,L623206,SN Bahía Lomas--Sector oeste,2018-01-19 15:18,300.0,-52.5504711,-69.3086243,False,-1,Magallanes
sander,Sanderling,Calidris alba,L504553,SN Humedal Río Maipo--Desembocadura,2018-01-19,3500.0,-33.6198013,-71.6275442,False,-1,Valparaíso
shicow,Shiny Cowbird,Molothrus bonariensis,L6760699,"Quintero, Región de Valparaíso, CL (-32.884, -71.5)",2018-01-20 23:00,53.0,-32.883892,-71.4995025,True,-1,Valparaíso
gyhsif1,Gray-hooded Sierra Finch,Phrygilus gayi,L6760699,"Quintero, Región de Valparaíso, CL (-32.884, -71.5)",2018-01-20 23:00,3.0,-32.883892,-71.4995025,True,-1,Valparaíso
brnowl,Barn Owl,Tyto alba,L751662,Cuesta Lo Prado,2018-01-20 21:26,7.0,-33.475554,-70.9373474,False,-1,Región Metropolitana de Santiago
pattyr2,Patagonian Tyrant,Colorhamphus parvirostris,L4025581,Universidad de Concepción,2018-01-20 17:24,1.0,-36.8278022,-73.0380106,False,-1,Bío-Bío
shbcan2,Sharp-billed Canastero,Asthenes pyrrholeuca,L6762217,Quebrada Tocohuaico--Caserones,2018-01-20 16:15,1.0,-29.7636276,-70.6003359,False,-1,Coquimbo
mallar3,Mallard,Anas platyrhynchos,L1033569,Puerto Varas,2018-01-20 15:53,2.0,-41.3180932,-72.9831825,False,1,Los Lagos
whtcar1,White-throated Caracara,Daptrius albogularis,L6784498,Laguna Mónica,2018-01-20 15:15,1.0,-53.5405624,-69.113102,False,-1,Magallanes
shbmin1,Short-billed Miner,Geositta antarctica,L6784498,Laguna Mónica,2018-01-20 15:15,30.0,-53.5405624,-69.113102,False,-1,Magallanes
grygul,Gray Gull,Leucophaeus modestus,L6752482,"Unnamed Road, Sierra Gorda, Región de Antofagasta, CL (-23.481, -69.69)",2018-01-20 12:25,1.0,-23.4812954,-69.6903959,True,-1,Antofagasta
wanalb,Wandering Albatross,Diomedea exulans,L1413869,Drake Passage--Chilean waters,2018-01-20 11:30,3.0,-58.6180174,-64.7815703,False,-1,Magallanes
bbspet1,Black-bellied Storm-Petrel,Fregetta tropica,L1413869,Drake Passage--Chilean waters,2018-01-20 11:30,1.0,-58.6180174,-64.7815703,False,-1,Magallanes
blupet1,Blue Petrel,Halobaena caerulea,L1413869,Drake Passage--Chilean waters,2018-01-20 11:30,6.0,-58.6180174,-64.7815703,False,-1,Magallanes
dovpri1,Antarctic Prion,Pachyptila desolata,L1413869,Drake Passage--Chilean waters,2018-01-20 11:30,15.0,-58.6180174,-64.7815703,False,-1,Magallanes
saffin,Saffron Finch,Sicalis flaveola,L4195403,Purranque,2018-01-20 10:05,1.0,-40.9112305,-73.1606412,True,-1,Los Lagos
stbbit1,Stripe-backed Bittern,Ixobrychus involucris,L570658,SN Laguna Batuco,2018-01-20 08:15,2.0,-33.2064427,-70.8279133,False,-1,Región Metropolitana de Santiago
shyalb2,Chatham Albatross,Thalassarche eremita,L570174,Quintero--Pelágico,2018-01-20 07:15,1.0,-32.7693779,-71.5838242,False,-1,Valparaíso
manshe,Manx Shearwater,Puffinus puffinus,L570174,Quintero--Pelágico,2018-01-20 07:15,1.0,-32.7693779,-71.5838242,False,-1,Valparaíso
tatdot1,Tawny-throated Dotterel,Oreopholus ruficollis,L17086287,Laguna Toro--Sector este,2018-01-20 07:00,6.0,-52.7417831,-71.118404,False,-1,Magallanes
wepdov1,West Peruvian Dove,Zenaida meloda,L6656030,"(-33,901, -70,654)",2018-01-21 20:03,5.0,-33.9011591,-70.6542802,True,-1,Región Metropolitana de Santiago
gyhsif1,Gray-hooded Sierra Finch,Phrygilus gayi,L5209939,Los Libertadores,2018-01-21 18:11,2.0,-32.846367,-70.117242,False,-1,Valparaíso
blaoys1,Blackish Oystercatcher,Haematopus ater,L6759624,"Unnamed Road, Valdivia, Región de los Ríos, CL (-39.875, -73.4)",2018-01-21 18:07,7.0,-39.8747235,-73.4000995,True,-1,Los Ríos
gramin1,Grayish Miner,Geositta maritima,L5053041,Ruta A-35,2018-01-21 17:58,7.0,-18.8837113,-69.761467,True,-1,Arica y Parinacota
twbplo1,Two-banded Plover,Charadrius falklandicus,L623206,SN Bahía Lomas--Sector oeste,2018-01-21 15:24,220.0,-52.5504711,-69.3086243,False,-1,Magallanes
redkno,Red Knot,Calidris canutus,L623206,SN Bahía Lomas--Sector oeste,2018-01-21 15:24,360.0,-52.5504711,-69.3086243,False,-1,Magallanes
whrsan,White-rumped Sandpiper,Calidris fuscicollis,L623206,SN Bahía Lomas--Sector oeste,2018-01-21 15:24,3500.0,-52.5504711,-69.3086243,False,-1,Magallanes
punsni1,Puna Snipe,Gallinago andina,L6758393,"(-22.3741,-68.0307)",2018-01-21 12:37,1.0,-22.374094,-68.030653,True,-1,Antofagasta
moupar2,Mountain Parakeet,Psilopsiagon aurifrons,L6758393,"(-22.3741,-68.0307)",2018-01-21 12:37,21.0,-22.374094,-68.030653,True,-1,Antofagasta
sooter1,Sooty Tern,Onychoprion fuscatus,L6760167,Quebrada La Chimba--curso inferior,2018-01-21 11:30,1.0,-23.5457336,-70.3982958,False,-1,Antofagasta
sander,Sanderling,Calidris alba,L623206,SN Bahía Lomas--Sector oeste,2018-01-21 10:30,300.0,-52.5504711,-69.3086243,False,-1,Magallanes
margod,Marbled Godwit,Limosa fedoa,L636004,Estero Tongoy--Desembocadura,2018-01-21 09:09,1.0,-30.25497,-71.49359,False,-1,Coquimbo
perter2,Peruvian Tern,Sternula lorata,L1850323,"Sector Rinconada, Antofagasta",2018-01-21 08:51,5.0,-23.4641962,-70.5020137,True,-1,Antofagasta
semsan,Semipalmated Sandpiper,Calidris pusilla,L504553,SN Humedal Río Maipo--Desembocadura,2018-01-21 07:51,6.0,-33.6198013,-71.6275442,False,-1,Valparaíso
ticdor1,Ticking Doradito,Pseudocolopteryx citreola,L504553,SN Humedal Río Maipo--Desembocadura,2018-01-21 07:51,1.0,-33.6198013,-71.6275442,False,-1,Valparaíso
soapas1,South American Painted-Snipe,Nycticryphes semicollaris,L502857,Tranque La Cadellada,2018-01-21 07:25,6.0,-33.2049405,-70.7892036,False,-1,Región Metropolitana de Santiago
trokin,Tropical Kingbird,Tyrannus melancholicus,L1048923,Molinos,2018-01-21,1.0,-18.3821935,-69.9457765,False,-1,Arica y Parinacota
wanalb,Wandering Albatross,Diomedea exulans,L6765481,"South Atlantic Ocean (-56.2833,-67.1593)",2018-01-22 15:49,4.0,-56.283301,-67.159337,True,-1,Magallanes
bbspet1,Black-bellied Storm-Petrel,Fregetta tropica,L6765484,"South Atlantic Ocean (-56.6280,-66.8511)",2018-01-22 13:51,1.0,-56.627981,-66.851131,True,-1,Magallanes
blupet1,Blue Petrel,Halobaena caerulea,L6765484,"South Atlantic Ocean (-56.6280,-66.8511)",2018-01-22 13:51,41.0,-56.627981,-66.851131,True,-1,Magallanes
renpha,Red-necked Phalarope,Phalaropus lobatus,L571139,Arica--Pelágico,2018-01-22 07:30,4.0,-18.4952381,-70.3791046,False,-1,Arica y Parinacota
dovpri1,Antarctic Prion,Pachyptila desolata,L6765544,"South Atlantic Ocean (-57.8143,-65.6111)",2018-01-22 06:09,1.0,-57.814297,-65.611131,True,-1,Magallanes
wepdov1,West Peruvian Dove,Zenaida meloda,L6767680,"42 La Română, Paine, Región Metropolitana, CL (-33,901, -70,654)",2018-01-23 18:43,7.0,-33.9011639,-70.6544495,True,-1,Región Metropolitana de Santiago
gyhsif1,Gray-hooded Sierra Finch,Phrygilus gayi,L6769200,Cerro Rodelillo,2018-01-23 18:20,1.0,-33.0593463,-71.5763757,False,-1,Valparaíso
fragul,Franklin's Gull,Leucophaeus pipixcan,L606243,Humedal Tres Puentes,2018-01-23 18:04,107.0,-53.1162328,-70.8813,False,-1,Magallanes
punsni1,Puna Snipe,Gallinago andina,L4185158,RN Las Vicuñas--Misitune,2018-01-23 14:10,1.0,-18.3692699,-69.3598223,False,-1,Arica y Parinacota
hudgod,Hudsonian Godwit,Limosa haemastica,L7045020,Bahía Lomas--Acceso Este,2018-01-23 11:00,4000.0,-52.6965952,-69.1154194,True,-1,Magallanes
redkno,Red Knot,Calidris canutus,L7045020,Bahía Lomas--Acceso Este,2018-01-23 11:00,3500.0,-52.6965952,-69.1154194,True,-1,Magallanes
chitin1,Chilean Tinamou,Nothoprocta perdicaria,L6766810,Quintrehueque,2018-01-23 09:00,3.0,-39.545353,-73.0217242,False,-1,Los Ríos
slccoo1,Slate-colored Coot,Fulica ardesiaca,L819709,"PN Lauca [usar localidades específicas, por favor]",2018-01-23,750.0,-18.1960868,-69.3196106,False,-1,Arica y Parinacota
shbcan2,Sharp-billed Canastero,Asthenes pyrrholeuca,L6781697,Manantial - Laguna Amarga Ranch,2018-01-24 20:15,6.0,-50.972364,-72.711811,True,-1,Magallanes
corcan1,Cordilleran Canastero,Asthenes modesta,L3226509,PN Pali Aike,2018-01-24 17:45,7.0,-52.124923,-69.7727967,False,-1,Magallanes
twbplo1,Two-banded Plover,Charadrius falklandicus,L5523317,Playa s/n (casa cafe),2018-01-24 16:00,400.0,-52.3975045,-69.5439827,True,-1,Magallanes
dovpri1,Antarctic Prion,Pachyptila desolata,L6934225,S57°46.16 / W63°32.88,2018-01-24 15:00,1.0,-57.769333,-63.548,True,-1,Magallanes
rubmin1,Rufous-banded Miner,Geositta rufipennis,L940213,PN Torres del Paine--Laguna de los Cisnes,2018-01-24 11:18,2.0,-51.0305723,-72.8702116,False,-1,Magallanes
wanalb,Wandering Albatross,Diomedea exulans,L6826456,"South Pacific Ocean (-47.2668,-75.8417)",2018-01-24 09:40,2.0,-47.266811,-75.841725,True,-1,Aisén del General Carlos Ibáñez del Campo
trokin,Tropical Kingbird,Tyrannus melancholicus,L6355411,Tranque Ariztía,2018-01-24 09:00,1.0,-19.1004478,-70.1041665,False,-1,Arica y Parinacota
rayfin1,Raimondi's Yellow-Finch,Sicalis raimondii,L6355411,Tranque Ariztía,2018-01-24 09:00,500.0,-19.1004478,-70.1041665,False,-1,Arica y Parinacota
andduc1,Andean Duck,Oxyura ferruginea,L3638924,Laguna San Pedro,2018-01-25 19:15,30.0,-38.439279,-71.333663,False,-1,Araucanía
chipig2,Chilean Pigeon,Patagioenas araucana,L2360743,aeropuerto,2018-01-25 18:45,1.0,-51.6633209,-72.5761986,True,-1,Magallanes
slbpri1,Slender-billed Prion,Pachyptila belcheri,L6826426,"South Pacific Ocean (-52.5750,-75.0198)",2018-01-25 11:00,30.0,-52.575003,-75.019828,True,-1,Magallanes
blupet1,Blue Petrel,Halobaena caerulea,L6775348,"(-56.513, -66.121)",2018-01-25 07:43,1.0,-56.5128127,-66.1207054,True,-1,Magallanes
trokin,Tropical Kingbird,Tyrannus melancholicus,L5050511,Valle del Río Camarones--Campos de alfalfa,2018-01-25,1.0,-19.1141103,-70.1313972,False,-1,Arica y Parinacota
rayfin1,Raimondi's Yellow-Finch,Sicalis raimondii,L5050511,Valle del Río Camarones--Campos de alfalfa,2018-01-25,150.0,-19.1141103,-70.1313972,False,-1,Arica y Parinacota
gybsht1,Gray-bellied Shrike-Tyrant,Agriornis micropterus,L3300515,Lago General Carrera--Puerto Ibáñez,2018-01-26 20:00,1.0,-46.2953427,-71.9294965,False,-1,Aisén del General Carlos Ibáñez del Campo
gyhsif1,Gray-hooded Sierra Finch,Phrygilus gayi,L6780640,"CL-Santiago-San José de Maipo (-33.6678,-70.0831)",2018-01-26 19:46,2.0,-33.667834,-70.083099,True,-1,Región Metropolitana de Santiago
ashgoo1,Ashy-headed Goose,Chloephaga poliocephala,L2386521,Laguna Cabeza de Mar 4,2018-01-26 15:50,50.0,-52.6887564,-70.8954191,False,-1,Magallanes
lakduc1,Lake Duck,Oxyura vittata,L2386521,Laguna Cabeza de Mar 4,2018-01-26 15:50,12.0,-52.6887564,-70.8954191,False,-1,Magallanes
yelpip3,Peruvian Pipit,Anthus peruvianus,L668852,Río Lluta--Desembocadura,2018-01-26 13:46,1.0,-18.4165392,-70.3224081,False,-1,Arica y Parinacota
scrcow1,Screaming Cowbird,Molothrus rufoaxillaris,L774555,Campus Sur -  Universidad de Chile,2018-01-26 13:30,2.0,-33.5708994,-70.6356955,False,-1,Región Metropolitana de Santiago
ticdor1,Ticking Doradito,Pseudocolopteryx citreola,L504553,SN Humedal Río Maipo--Desembocadura,2018-01-26 10:00,3.0,-33.6198013,-71.6275442,False,-1,Valparaíso
mallar3,Mallard,Anas platyrhynchos,L4968603,Laguna de Zapallar ,2018-01-26 09:43,15.0,-32.632934,-71.425738,True,1,Valparaíso
blupet1,Blue Petrel,Halobaena caerulea,L7402399,"(-56.0227,-67.2751)",2018-01-26 08:07,4.0,-56.022701,-67.275117,True,-1,Magallanes
royalb1,Royal Albatross,Diomedea epomophora,L6864908,"(-55.9792,-64.9019)",2018-01-26 07:14,1.0,-55.979169,-64.901865,True,-1,Magallanes
cinhar1,Cinereous Harrier,Circus cinereus,L3249856,Punta Dúngenes (Chile),2018-01-27 19:15,9.0,-52.3925181,-68.4347767,False,-1,Magallanes
soppet1,Soft-plumaged Petrel,Pterodroma mollis,L1413869,Drake Passage--Chilean waters,2018-01-27 14:49,1.0,-58.6180174,-64.7815703,False,-1,Magallanes
dovpri1,Antarctic Prion,Pachyptila desolata,L1413869,Drake Passage--Chilean waters,2018-01-27 14:49,20.0,-58.6180174,-64.7815703,False,-1,Magallanes
shbcan2,Sharp-billed Canastero,Asthenes pyrrholeuca,L6692065,Quebrada El Calvario--Vega La Piedra,2018-01-27 12:02,1.0,-29.4021263,-70.4748943,False,-1,Coquimbo
rngtyr1,Rufous-naped Ground-Tyrant,Muscisaxicola rufivertex,L2362429,Camino laguna El Planchon,2018-01-27 12:00,1.0,-35.1556296,-70.5365181,False,-1,Maule
wanalb,Wandering Albatross,Diomedea exulans,L6782120,"Drake Passage--56.7870,-64.9773",2018-01-27 10:13,2.0,-56.787022,-64.977259,True,-1,Magallanes
bbspet1,Black-bellied Storm-Petrel,Fregetta tropica,L6782120,"Drake Passage--56.7870,-64.9773",2018-01-27 10:13,2.0,-56.787022,-64.977259,True,-1,Magallanes
blkrai,Black Rail,Laterallus jamaicensis,L502857,Tranque La Cadellada,2018-01-27 08:10,6.0,-33.2049405,-70.7892036,False,-1,Región Metropolitana de Santiago
pifshe,Pink-footed Shearwater,Ardenna creatopus,L570161,Valparaíso--Pelágico,2018-01-27 07:00,400.0,-33.0008897,-71.9479179,False,-1,Valparaíso
greegr,Great Egret,Ardea alba,L6792048,"Panamericana Sur, Villa Alegre, VII Región, CL (-35.74, -71.676)",2018-01-28 20:30,79.0,-35.7395531,-71.6757987,True,-1,Maule
snoegr,Snowy Egret,Egretta thula,L6792048,"Panamericana Sur, Villa Alegre, VII Región, CL (-35.74, -71.676)",2018-01-28 20:30,102.0,-35.7395531,-71.6757987,True,-1,Maule
gyhsif1,Gray-hooded Sierra Finch,Phrygilus gayi,L1580272,Los Condores - Hacia La Parva,2018-01-28 20:00,17.0,-33.3445888,-70.299358,True,-1,Región Metropolitana de Santiago
burowl,Burrowing Owl,Athene cunicularia,L6791091,"6198 Pedro Aguirre Cerda, Los Cerrillos, Región Metropolitana, CL (-33.496, -70.705)",2018-01-28 18:06,1.0,-33.4960211,-70.7051774,True,-1,Región Metropolitana de Santiago
lesrhe2,Lesser Rhea,Rhea pennata,L7332059,Parque Patagonia — pasando la frontera,2018-01-28 17:38,14.0,-47.185271,-71.94209,True,-1,Aisén del General Carlos Ibáñez del Campo
wepdov1,West Peruvian Dove,Zenaida meloda,L606195,Estero Catapilco--Desembocadura (Laguna Zapallar),2018-01-28 15:34,1.0,-32.6327613,-71.426518,False,-1,Valparaíso
gragoo,Graylag Goose,Anser anser,L6718052,"Cucao, Villa",2018-01-28 15:09,20.0,-42.6317018,-74.1043337,True,1,Los Lagos
belgul,Belcher's Gull,Larus belcheri,L516520,PN Pan de Azúcar--Caleta,2018-01-28 14:50,28.0,-26.1418778,-70.6625175,False,-1,Atacama
siltea1,Silver Teal,Spatula versicolor,L6789787,"CL-Los Lagos-Maullín (-41,5931,-73,6718)",2018-01-28 13:30,16.0,-41.593148,-73.671785,True,-1,Los Lagos
calqua,California Quail,Callipepla californica,L6819151,Cementerio Metropolitano,2018-01-28 11:30,0.0,-33.5272646,-70.683825,True,0,Región Metropolitana de Santiago
sander,Sanderling,Calidris alba,L504553,SN Humedal Río Maipo--Desembocadura,2018-01-28 11:18,500.0,-33.6198013,-71.6275442,False,-1,Valparaíso
semsan,Semipalmated Sandpiper,Calidris pusilla,L504553,SN Humedal Río Maipo--Desembocadura,2018-01-28 11:18,4.0,-33.6198013,-71.6275442,False,-1,Valparaíso
ticdor1,Ticking Doradito,Pseudocolopteryx citreola,L504553,SN Humedal Río Maipo--Desembocadura,2018-01-28 11:18,1.0,-33.6198013,-71.6275442,False,-1,Valparaíso
greshe,Great Shearwater,Ardenna gravis,L6822856,"South Atlantic Ocean (-55.7678,-66.1351)",2018-01-28 10:00,1.0,-55.767824,-66.135069,True,-1,Magallanes
wanalb,Wandering Albatross,Diomedea exulans,L6817619,"CL-Magallanes and Antartica Chilena-South Atlantic Ocean (-55.8840,-66.5021)",2018-01-28 09:20,2.0,-55.883988,-66.502139,True,-1,Magallanes
manshe,Manx Shearwater,Puffinus puffinus,L6817552,"CL-Magallanes and Antartica Chilena-Oceano Pacifico (-55.9961,-67.1426)",2018-01-28 08:15,1.0,-55.996056,-67.142592,True,-1,Magallanes
saffin,Saffron Finch,Sicalis flaveola,L1033569,Puerto Varas,2018-01-28 07:55,4.0,-41.3180932,-72.9831825,False,-1,Los Lagos
gybstp1,Gray-backed Storm-Petrel,Garrodia nereis,L5590043,Isla Hornos--Monumento Cabo de Hornos,2018-01-28 06:40,3.0,-55.9647678,-67.2250414,False,-1,Magallanes
rulowl1,Rufous-legged Owl,Strix rufipes,L6812945,PN Río Clarillo--Sector Loma del Diablo,2018-01-29 21:35,1.0,-33.7285005,-70.427508,False,-1,Región Metropolitana de Santiago
twbplo1,Two-banded Plover,Charadrius falklandicus,L910283,"Bahia Lomas Oeste, Campamento",2018-01-29 17:30,600.0,-52.5537916,-69.3113065,True,-1,Magallanes
hudgod,Hudsonian Godwit,Limosa haemastica,L910283,"Bahia Lomas Oeste, Campamento",2018-01-29 17:30,2000.0,-52.5537916,-69.3113065,True,-1,Magallanes
redkno,Red Knot,Calidris canutus,L910283,"Bahia Lomas Oeste, Campamento",2018-01-29 17:30,3000.0,-52.5537916,-69.3113065,True,-1,Magallanes
whrsan,White-rumped Sandpiper,Calidris fuscicollis,L910283,"Bahia Lomas Oeste, Campamento",2018-01-29 17:30,3000.0,-52.5537916,-69.3113065,True,-1,Magallanes
mallar3,Mallard,Anas platyrhynchos,L815484,Sausalito,2018-01-29 15:00,3.0,-33.0131979,-71.5365314,False,1,Valparaíso
sander,Sanderling,Calidris alba,L504548,Estero Mantagua,2018-01-29 09:30,150.0,-32.8844165,-71.5067482,False,-1,Valparaíso
bichaw4,Chilean Hawk,Accipiter chilensis,L6812954,"Unknown Location - (-33.729, -70.428)",2018-01-30 16:30,1.0,-33.7285962,-70.4276808,True,-1,Región Metropolitana de Santiago
siltea1,Silver Teal,Spatula versicolor,L7730409,Laguna Quenuir bajo,2018-01-30 13:42,6.0,-41.594227,-73.671042,False,-1,Los Lagos
ongtyr1,Ochre-naped Ground-Tyrant,Muscisaxicola flavinucha,L6815091,"(-52,1715,-69,8669)",2018-01-30 13:22,1.0,-52.171545,-69.866857,True,-1,Magallanes
pecsan,Pectoral Sandpiper,Calidris melanotos,L668852,Río Lluta--Desembocadura,2018-01-30 11:43,7.0,-18.4165392,-70.3224081,False,-1,Arica y Parinacota
whcpin,White-cheeked Pintail,Anas bahamensis,L4016324,Buque Quemado (acceso),2018-01-30 10:11,2.0,-52.412315,-69.583377,True,-1,Magallanes
soppet1,Soft-plumaged Petrel,Pterodroma mollis,L1413869,Drake Passage--Chilean waters,2018-01-30 09:56,2.0,-58.6180174,-64.7815703,False,-1,Magallanes
dovpri1,Antarctic Prion,Pachyptila desolata,L1413869,Drake Passage--Chilean waters,2018-01-30 09:56,6.0,-58.6180174,-64.7815703,False,-1,Magallanes
rulowl1,Rufous-legged Owl,Strix rufipes,L6812945,PN Río Clarillo--Sector Loma del Diablo,2018-01-30 06:00,2.0,-33.7285005,-70.427508,False,-1,Región Metropolitana de Santiago
rulowl1,Rufous-legged Owl,Strix rufipes,L6812945,PN Río Clarillo--Sector Loma del Diablo,2018-01-31 23:20,1.0,-33.7285005,-70.427508,False,-1,Región Metropolitana de Santiago
burpar,Burrowing Parakeet,Cyanoliseus patagonus,L6358848,Quebrada El Arrayán--Cerro Los Jotes,2018-01-31 20:40,13.0,-30.0403149,-71.0184789,False,-1,Coquimbo
kelgul,Kelp Gull,Larus dominicanus,L5717144,Pucón--Playa grande,2018-01-31 19:40,1.0,-39.2668257,-71.9758051,False,-1,Araucanía
speduc2,Spectacled Duck,Speculanas specularis,L6682343,Río Lonquimay -- desde puente la puntilla al pueblo,2018-01-31 16:15,12.0,-38.5138002,-71.4037855,True,-1,Araucanía
gyhsif1,Gray-hooded Sierra Finch,Phrygilus gayi,L752313,Humedal de Mantagua,2018-01-31 11:54,1.0,-32.8853535,-71.5031433,True,-1,Valparaíso
ruhgoo1,Ruddy-headed Goose,Chloephaga rubidiceps,L5001684,Río San Juan,2018-01-31 09:31,11.0,-53.647169,-70.960983,False,-1,Magallanes
robpoc1,Rosy-billed Pochard,Netta peposaca,L512176,Pichilemu--Laguna Petrel (Humedal Urbano),2018-01-31 09:15,11.0,-34.3824693,-71.9981289,False,-1,Libertador General Bernardo O'Higgins
gybmar,Gray-breasted Martin,Progne chalybea,L6825238,Humedal los Batros,2018-01-31 08:17,1.0,-36.8502818,-73.1124473,True,-1,Bío-Bío
shicow,Shiny Cowbird,Molothrus bonariensis,L6595496,"CL-Maule-Talca (-35,4453,-71,6732) mi casa",2018-02-01 20:59,65.0,-35.445323,-71.673193,True,-1,Maule
rulowl1,Rufous-legged Owl,Strix rufipes,L6812957,"Unknown Location - (-33.728, -70.427)",2018-02-01 18:30,1.0,-33.728096,-70.42687,True,-1,Región Metropolitana de Santiago
rempar,Red-masked Parakeet,Psittacara erythrogenys,L940378,Museo de Azapa,2018-02-01 12:15,2.0,-18.5157287,-70.1809323,False,1,Arica y Parinacota
margod,Marbled Godwit,Limosa fedoa,L636004,Estero Tongoy--Desembocadura,2018-02-01 10:20,1.0,-30.25497,-71.49359,False,-1,Coquimbo
thbsis1,Thick-billed Siskin,Spinus crassirostris,L819912,Camino Embalse El Yeso--Vega al costado del camino,2018-02-01 09:50,3.0,-33.6900671,-70.1072252,False,-1,Región Metropolitana de Santiago
whcswi,White-collared Swift,Streptoprocne zonaris,L1185611,Valle de los Cóndores,2018-02-01,3.0,-35.9546649,-70.5777812,False,-1,Maule
bkbalb,Black-browed Albatross,Thalassarche melanophris,L6972011,Beagle Channel - east end,2018-02-02 20:58,800.0,-54.912834,-67.309904,True,-1,Magallanes
impcor1,Imperial Cormorant,Leucocarbo atriceps,L6972011,Beagle Channel - east end,2018-02-02 20:58,750.0,-54.912834,-67.309904,True,-1,Magallanes
gyhsif1,Gray-hooded Sierra Finch,Phrygilus gayi,L6409722,Santo Domingo - El Golf,2018-02-02 20:05,4.0,-33.6431266,-71.6192673,True,-1,Valparaíso
colplo1,Collared Plover,Charadrius collaris,L504553,SN Humedal Río Maipo--Desembocadura,2018-02-02 18:35,15.0,-33.6198013,-71.6275442,False,-1,Valparaíso
sander,Sanderling,Calidris alba,L504553,SN Humedal Río Maipo--Desembocadura,2018-02-02 18:35,1000.0,-33.6198013,-71.6275442,False,-1,Valparaíso
amgplo,American Golden-Plover,Pluvialis dominica,L6812038,Laguna Santa Maria,2018-02-02 16:00,1.0,-52.5194068,-70.5544996,False,-1,Magallanes
batear1,Band-tailed Earthcreeper,Ochetorhynchus phoenicurus,L824302,Sierra Baguales,2018-02-02 10:10,3.0,-50.7894427,-72.4143219,False,-1,Magallanes
gybsht1,Gray-bellied Shrike-Tyrant,Agriornis micropterus,L824302,Sierra Baguales,2018-02-02 10:10,1.0,-50.7894427,-72.4143219,False,-1,Magallanes
whtcar1,White-throated Caracara,Daptrius albogularis,L3974020,estancia,2018-02-02 09:00,1.0,-51.2863999,-72.6199293,True,-1,Magallanes
mcrtyr1,Many-colored Rush Tyrant,Tachuris rubrigastra,L904574,Colchane,2018-02-03 17:30,4.0,-19.2761874,-68.6374068,False,-1,Tarapacá
gryfin2,Greater Yellow-Finch,Sicalis auriventris,L6816347,"X-695, Coyhaique, XI Región, CL (-45,891, -71,699)",2018-02-03 16:54,1.0,-45.8911867,-71.69868,True,-1,Aisén del General Carlos Ibáñez del Campo
btsfin1,Band-tailed Sierra Finch,Rhopospina alaudina,L691227,RN El Yali--Laguna Colejuda,2018-02-03 16:08,1.0,-33.7650206,-71.7024422,False,-1,Valparaíso
gyhsif1,Gray-hooded Sierra Finch,Phrygilus gayi,L1030452,Camino a La Parva--Vegas y Pastizales,2018-02-03 11:30,5.0,-33.3442243,-70.299046,False,-1,Región Metropolitana de Santiago
twbplo1,Two-banded Plover,Charadrius falklandicus,L593521,RN El Yali--Laguna Albufera,2018-02-03 10:30,65.0,-33.7592408,-71.7343712,False,-1,Valparaíso
sander,Sanderling,Calidris alba,L593521,RN El Yali--Laguna Albufera,2018-02-03 10:30,400.0,-33.7592408,-71.7343712,False,-1,Valparaíso
semsan,Semipalmated Sandpiper,Calidris pusilla,L593521,RN El Yali--Laguna Albufera,2018-02-03 10:30,1.0,-33.7592408,-71.7343712,False,-1,Valparaíso
sheowl,Short-eared Owl,Asio flammeus,L593521,RN El Yali--Laguna Albufera,2018-02-03 10:30,1.0,-33.7592408,-71.7343712,False,-1,Valparaíso
scrcow1,Screaming Cowbird,Molothrus rufoaxillaris,L6827917,Curva después de la cuesta Chada.,2018-02-04 20:30,2.0,-33.9056133,-70.6555331,True,-1,Región Metropolitana de Santiago
saffin,Saffron Finch,Sicalis flaveola,L6987503,Esquina de Simpson con errazuriz,2018-02-04 18:00,1.0,-39.8297965,-73.2190275,True,-1,Los Ríos
gyhsif1,Gray-hooded Sierra Finch,Phrygilus gayi,L5067800,Camino a Valle Nevado,2018-02-04 17:00,4.0,-33.3679901,-70.2714729,True,-1,Región Metropolitana de Santiago
semsan,Semipalmated Sandpiper,Calidris pusilla,L691235,Estero Nilahue--Salinas de Cáhuil,2018-02-04 12:49,1.0,-34.5060615,-71.9860268,False,-1,Libertador General Bernardo O'Higgins
mallar3,Mallard,Anas platyrhynchos,L3085729,Parque Tricao,2018-02-04 12:20,1.0,-33.7218411,-71.6387343,False,1,Valparaíso
hudgod,Hudsonian Godwit,Limosa haemastica,L636004,Estero Tongoy--Desembocadura,2018-02-05 19:05,6.0,-30.25497,-71.49359,False,-1,Coquimbo
margod,Marbled Godwit,Limosa fedoa,L636004,Estero Tongoy--Desembocadura,2018-02-05 19:05,1.0,-30.25497,-71.49359,False,-1,Coquimbo
redkno,Red Knot,Calidris canutus,L636004,Estero Tongoy--Desembocadura,2018-02-05 19:05,2.0,-30.25497,-71.49359,False,-1,Coquimbo
sctear1,Scale-throated Earthcreeper,Upucerthia dumetaria,L6826667,"(-33.6149,-69.9726)",2018-02-05 15:00,1.0,-33.614879,-69.972642,True,-1,Región Metropolitana de Santiago
gyhsif1,Gray-hooded Sierra Finch,Phrygilus gayi,L6826667,"(-33.6149,-69.9726)",2018-02-05 15:00,4.0,-33.614879,-69.972642,True,-1,Región Metropolitana de Santiago
magoys1,Magellanic Oystercatcher,Haematopus leucopodus,L623206,SN Bahía Lomas--Sector oeste,2018-02-05 09:50,2500.0,-52.5504711,-69.3086243,False,-1,Magallanes
ruhgoo1,Ruddy-headed Goose,Chloephaga rubidiceps,L1013091,Desembocadura Rio San Juan,2018-02-05 09:14,14.0,-53.6540495,-70.944643,True,-1,Magallanes
limalb1,Light-mantled Albatross,Phoebetria palpebrata,L6831197,"(-56.521, -66.398)",2018-02-06 21:20,1.0,-56.5210908,-66.397839,True,-1,Magallanes
magoys1,Magellanic Oystercatcher,Haematopus leucopodus,L4672487,Punta Delgada,2018-02-06 17:55,300.0,-52.45417,-69.542265,True,-1,Magallanes
rucdot1,Rufous-chested Dotterel,Charadrius modestus,L2887320,Parque Chabunco,2018-02-06 09:00,30.0,-52.9911014,-70.8164549,False,-1,Magallanes
saffin,Saffron Finch,Sicalis flaveola,L6962073,"930-948 Eleuterio Ramírez, Puerto Montt, X Región, CL (-41.469, -72.964)",2018-02-07 14:50,1.0,-41.4686766,-72.9644498,True,-1,Los Lagos
mallar3,Mallard,Anas platyrhynchos,L861844,Humedal Urbano Cartagena,2018-02-07 11:58,1.0,-33.5350454,-71.6022348,False,1,Valparaíso
comter,Common Tern,Sterna hirundo,L861844,Humedal Urbano Cartagena,2018-02-07 11:58,6.0,-33.5350454,-71.6022348,False,-1,Valparaíso
blkski,Black Skimmer,Rynchops niger,L7086377,Río Catrilelfu--Desembocadura,2018-02-07 11:45,306.0,-39.9441274,-73.3892298,False,-1,Los Ríos
whfibi,White-faced Ibis,Plegadis chihi,L502857,Tranque La Cadellada,2018-02-07 11:02,40.0,-33.2049405,-70.7892036,False,-1,Región Metropolitana de Santiago
ticdor1,Ticking Doradito,Pseudocolopteryx citreola,L504553,SN Humedal Río Maipo--Desembocadura,2018-02-07 08:51,1.0,-33.6198013,-71.6275442,False,-1,Valparaíso
pecsan,Pectoral Sandpiper,Calidris melanotos,L570658,SN Laguna Batuco,2018-02-07 07:51,30.0,-33.2064427,-70.8279133,False,-1,Región Metropolitana de Santiago
royalb1,Royal Albatross,Diomedea epomophora,L6852903,"South Atlantic Ocean (-56.0987,-65.5281)",2018-02-08 19:47,2.0,-56.098661,-65.528134,True,-1,Magallanes
wanalb,Wandering Albatross,Diomedea exulans,L6852903,"South Atlantic Ocean (-56.0987,-65.5281)",2018-02-08 19:47,10.0,-56.098661,-65.528134,True,-1,Magallanes
impcor1,Imperial Cormorant,Leucocarbo atriceps,L6843664,"Boliviana, Punta Arenas, Región de Magallanes y de la Antártica Chilena, CL (-53.17, -70.906)",2018-02-08 18:13,808.0,-53.1701663,-70.9058183,True,-1,Magallanes
bwgdov1,Black-winged Ground Dove,Metriopelia melanoptera,L570508,Putre,2018-02-08 15:55,250.0,-18.1964537,-69.5565677,False,-1,Arica y Parinacota
whcpin,White-cheeked Pintail,Anas bahamensis,L822631,Buque Quemado,2018-02-08 14:43,4.0,-52.4068174,-69.5719528,False,-1,Magallanes
amgplo,American Golden-Plover,Pluvialis dominica,L819709,"PN Lauca [usar localidades específicas, por favor]",2018-02-08 10:55,1.0,-18.1960868,-69.3196106,False,-1,Arica y Parinacota
greyel,Greater Yellowlegs,Tringa melanoleuca,L509064,SN Laguna Conchalí,2018-02-08 10:15,100.0,-31.8780678,-71.4966631,False,-1,Coquimbo
margod,Marbled Godwit,Limosa fedoa,L636004,Estero Tongoy--Desembocadura,2018-02-08 09:39,1.0,-30.25497,-71.49359,False,-1,Coquimbo
gyfcin1,Gray-flanked Cinclodes,Cinclodes oustaleti,L10135760,"Río Aconcagua, La Cruz, Chile",2018-02-08 09:00,2.0,-32.8159599,-71.2437949,True,-1,Valparaíso
sedwre,Grass Wren,Cistothorus platensis,L10135760,"Río Aconcagua, La Cruz, Chile",2018-02-08 09:00,1.0,-32.8159599,-71.2437949,True,-1,Valparaíso
bulshe,Buller's Shearwater,Ardenna bulleri,L898822,Bahía de Valparaíso,2018-02-08 07:15,6.0,-33.0259362,-71.6095734,False,-1,Valparaíso
thtray1,Thorn-tailed Rayadito,Aphrastura spinicauda,L5141244,Estero el Totoral,2018-02-09 18:30,12.0,-33.413456,-71.616579,False,-1,Valparaíso
comgal1,Common Gallinule,Gallinula galeata,L971543,SN Humedal de Llancahue,2018-02-09 17:25,2.0,-39.8748667,-73.1630659,False,-1,Los Ríos
gyhsif1,Gray-hooded Sierra Finch,Phrygilus gayi,L1103148,MN Isla Cachagua,2018-02-09 17:00,1.0,-32.585585,-71.4562798,False,-1,Valparaíso
amered,American Redstart,Setophaga ruticilla,L1048923,Molinos,2018-02-09 13:17,1.0,-18.3821935,-69.9457765,False,-1,Arica y Parinacota
sander,Sanderling,Calidris alba,L7567372,Llolleo--Playa,2018-02-09 11:45,124.0,-33.6063364,-71.6271633,False,-1,Valparaíso
wanalb,Wandering Albatross,Diomedea exulans,L1413869,Drake Passage--Chilean waters,2018-02-09 10:05,3.0,-58.6180174,-64.7815703,False,-1,Magallanes
soppet1,Soft-plumaged Petrel,Pterodroma mollis,L1413869,Drake Passage--Chilean waters,2018-02-09 10:05,1.0,-58.6180174,-64.7815703,False,-1,Magallanes
dovpri1,Antarctic Prion,Pachyptila desolata,L1413869,Drake Passage--Chilean waters,2018-02-09 10:05,3.0,-58.6180174,-64.7815703,False,-1,Magallanes
codpet1,Common Diving-Petrel,Pelecanoides urinatrix,L1413869,Drake Passage--Chilean waters,2018-02-09 10:05,1.0,-58.6180174,-64.7815703,False,-1,Magallanes
margod,Marbled Godwit,Limosa fedoa,L636004,Estero Tongoy--Desembocadura,2018-02-09 09:32,1.0,-30.25497,-71.49359,False,-1,Coquimbo
colplo1,Collared Plover,Charadrius collaris,L504553,SN Humedal Río Maipo--Desembocadura,2018-02-09 08:45,30.0,-33.6198013,-71.6275442,False,-1,Valparaíso
dorcht1,d'Orbigny's Chat-Tyrant,Ochthoeca oenanthoides,L571425,Belén--Bosque Queñua (Polylepis),2018-02-09 08:41,8.0,-18.4130883,-69.5071507,False,-1,Arica y Parinacota
thbsis1,Thick-billed Siskin,Spinus crassirostris,L571425,Belén--Bosque Queñua (Polylepis),2018-02-09 08:41,1.0,-18.4130883,-69.5071507,False,-1,Arica y Parinacota
rudtur,Ruddy Turnstone,Arenaria interpres,L683071,Playa La Lisera,2018-02-10 18:34,150.0,-18.4933642,-70.3262115,False,-1,Arica y Parinacota
surfbi,Surfbird,Calidris virgata,L683071,Playa La Lisera,2018-02-10 18:34,300.0,-18.4933642,-70.3262115,False,-1,Arica y Parinacota
burpar,Burrowing Parakeet,Cyanoliseus patagonus,L5078405,Agua Grande,2018-02-10 16:30,386.0,-29.7336034,-71.017347,False,-1,Coquimbo
rinkin1,Ringed Kingfisher,Megaceryle torquata,L1763645,Corral,2018-02-10 15:31,5.0,-39.8827132,-73.4322769,False,-1,Los Ríos
scrcow1,Screaming Cowbird,Molothrus rufoaxillaris,L1997312,Agua Buena,2018-02-10 15:20,2.0,-34.6528562,-70.850063,True,-1,Libertador General Bernardo O'Higgins
comter,Common Tern,Sterna hirundo,L861844,Humedal Urbano Cartagena,2018-02-10 14:35,1.0,-33.5350454,-71.6022348,False,-1,Valparaíso
santer1,Sandwich Tern,Thalasseus sandvicensis,L861844,Humedal Urbano Cartagena,2018-02-10 14:35,3.0,-33.5350454,-71.6022348,False,-1,Valparaíso
musduc,Muscovy Duck,Cairina moschata,L879368,Lago Budi--Deume,2018-02-10 13:00,1.0,-38.8676136,-73.3436966,False,1,Araucanía
bkbplo,Black-bellied Plover,Pluvialis squatarola,L504553,SN Humedal Río Maipo--Desembocadura,2018-02-10 08:45,22.0,-33.6198013,-71.6275442,False,-1,Valparaíso
redkno,Red Knot,Calidris canutus,L504553,SN Humedal Río Maipo--Desembocadura,2018-02-10 08:45,2.0,-33.6198013,-71.6275442,False,-1,Valparaíso
semsan,Semipalmated Sandpiper,Calidris pusilla,L504553,SN Humedal Río Maipo--Desembocadura,2018-02-10 08:45,15.0,-33.6198013,-71.6275442,False,-1,Valparaíso
ticdor1,Ticking Doradito,Pseudocolopteryx citreola,L504553,SN Humedal Río Maipo--Desembocadura,2018-02-10 08:45,1.0,-33.6198013,-71.6275442,False,-1,Valparaíso
mallar3,Mallard,Anas platyrhynchos,L606195,Estero Catapilco--Desembocadura (Laguna Zapallar),2018-02-10 08:00,8.0,-32.6327613,-71.426518,False,1,Valparaíso
renpha,Red-necked Phalarope,Phalaropus lobatus,L571139,Arica--Pelágico,2018-02-10 08:00,1.0,-18.4952381,-70.3791046,False,-1,Arica y Parinacota
swtgul1,Swallow-tailed Gull,Creagrus furcatus,L571139,Arica--Pelágico,2018-02-10 08:00,3.0,-18.4952381,-70.3791046,False,-1,Arica y Parinacota
wavalb,Waved Albatross,Phoebastria irrorata,L571139,Arica--Pelágico,2018-02-10 08:00,1.0,-18.4952381,-70.3791046,False,-1,Arica y Parinacota
wispet,Wilson's Storm-Petrel,Oceanites oceanicus,L571139,Arica--Pelágico,2018-02-10 08:00,20.0,-18.4952381,-70.3791046,False,-1,Arica y Parinacota
wrspet,Wedge-rumped Storm-Petrel,Hydrobates tethys,L571139,Arica--Pelágico,2018-02-10 08:00,20.0,-18.4952381,-70.3791046,False,-1,Arica y Parinacota
bfoboo,Blue-footed Booby,Sula nebouxii,L1048910,Arica--Puerto,2018-02-10 07:51,1.0,-18.4724046,-70.3238511,False,-1,Arica y Parinacota
slbpri1,Slender-billed Prion,Pachyptila belcheri,L6864389,"CL-Magallanes and Antartica Chilena-Oceano Pacifico (-52.1956,-74.9886)",2018-02-10 07:15,0.0,-52.19565,-74.988619,True,-1,Magallanes
wespet1,Westland Petrel,Procellaria westlandica,L6864389,"CL-Magallanes and Antartica Chilena-Oceano Pacifico (-52.1956,-74.9886)",2018-02-10 07:15,0.0,-52.19565,-74.988619,True,-1,Magallanes
pafear1,Patagonian Forest Earthcreeper,Upucerthia saturatior,L1309608,Termas de Chillán,2018-02-10 07:00,3.0,-36.9067285,-71.4109504,False,-1,Ñuble
gybsht1,Gray-bellied Shrike-Tyrant,Agriornis micropterus,L6862461,"Región de Tarapaca, Pozo Almonte CL-Tarapacá (-20,4029,-69,6308)",2018-02-11 17:34,1.0,-20.402945,-69.630777,True,-1,Tarapacá
flistd1,Flightless Steamer-Duck,Tachyeres pteneres,L774640,Aucar,2018-02-11 17:15,54.0,-42.164485,-73.4812617,False,-1,Los Lagos
willet1,Willet,Tringa semipalmata,L691243,Río Andalien--Desembocadura,2018-02-11 17:15,1.0,-36.7418086,-73.0162556,False,-1,Bío-Bío
pumstp1,Pincoya Storm-Petrel,Oceanites pincoyae,L6864394,"CL-Aisén-Oceano Pacifico (-44.7161,-74.5437)",2018-02-11 16:34,1.0,-44.716127,-74.543691,True,-1,Aisén del General Carlos Ibáñez del Campo
flystd1,Flying Steamer-Duck,Tachyeres patachonicus,L6862658,"CL-Araucania Region-Melipeuco (-38.6442,-71.6226)",2018-02-11 16:33,39.0,-38.644219,-71.622584,True,-1,Araucanía
saffin,Saffron Finch,Sicalis flaveola,L3939991,Universidad Austral de Chile,2018-02-11 16:02,3.0,-39.808327,-73.2525909,False,-1,Los Ríos
mallar3,Mallard,Anas platyrhynchos,L1003469,Estero San Jerónimo--Desembocadura,2018-02-11 15:44,3.0,-33.3553642,-71.6547096,False,1,Valparaíso
burpar,Burrowing Parakeet,Cyanoliseus patagonus,L6295264,Incahuasi,2018-02-11 14:20,5.0,-29.2259313,-71.0119772,False,-1,Atacama
bkbplo,Black-bellied Plover,Pluvialis squatarola,L3626399,Río Maipo--Caleta,2018-02-11 13:59,28.0,-33.6188632,-71.6234444,False,-1,Valparaíso
semsan,Semipalmated Sandpiper,Calidris pusilla,L3626399,Río Maipo--Caleta,2018-02-11 13:59,1.0,-33.6188632,-71.6234444,False,-1,Valparaíso
trokin,Tropical Kingbird,Tyrannus melancholicus,L5903098,Valle del Río Camarones--Camarones,2018-02-11 12:20,1.0,-19.0077761,-69.8589975,False,-1,Arica y Parinacota
colplo1,Collared Plover,Charadrius collaris,L504553,SN Humedal Río Maipo--Desembocadura,2018-02-11 11:02,11.0,-33.6198013,-71.6275442,False,-1,Valparaíso
redkno,Red Knot,Calidris canutus,L504553,SN Humedal Río Maipo--Desembocadura,2018-02-11 11:02,1.0,-33.6198013,-71.6275442,False,-1,Valparaíso
sander,Sanderling,Calidris alba,L504553,SN Humedal Río Maipo--Desembocadura,2018-02-11 11:02,225.0,-33.6198013,-71.6275442,False,-1,Valparaíso
santer1,Sandwich Tern,Thalasseus sandvicensis,L504553,SN Humedal Río Maipo--Desembocadura,2018-02-11 11:02,2.0,-33.6198013,-71.6275442,False,-1,Valparaíso
permar1,Peruvian Martin,Progne murphyi,L1048923,Molinos,2018-02-11 08:37,1.0,-18.3821935,-69.9457765,False,-1,Arica y Parinacota
andduc1,Andean Duck,Oxyura ferruginea,L3638924,Laguna San Pedro,2018-02-12 19:00,40.0,-38.439279,-71.333663,False,-1,Araucanía
twbplo1,Two-banded Plover,Charadrius falklandicus,L516521,Caulín,2018-02-12 18:18,35.0,-41.8259378,-73.6275078,False,-1,Los Lagos
gyhsif1,Gray-hooded Sierra Finch,Phrygilus gayi,L504548,Estero Mantagua,2018-02-12 16:00,5.0,-32.8844165,-71.5067482,False,-1,Valparaíso
mallar3,Mallard,Anas platyrhynchos,L760564,Jardín Botánico (Viña del Mar),2018-02-12 11:10,5.0,-33.041324,-71.5000191,False,1,Valparaíso
margod,Marbled Godwit,Limosa fedoa,L636004,Estero Tongoy--Desembocadura,2018-02-12 08:00,1.0,-30.25497,-71.49359,False,-1,Coquimbo
speduc2,Spectacled Duck,Speculanas specularis,L6864540,Salgo Del Laja Area,2018-02-12 07:27,3.0,-37.223074,-72.3752958,True,-1,Bío-Bío
whcswi,White-collared Swift,Streptoprocne zonaris,L3087329,Baños del Campanario,2018-02-12 06:00,1.0,-35.9351327,-70.5960631,False,-1,Maule
gyhsif1,Gray-hooded Sierra Finch,Phrygilus gayi,L1147111,Farellones,2018-02-13 20:30,30.0,-33.3520394,-70.3129292,False,-1,Región Metropolitana de Santiago
wrlrus1,Wren-like Rushbird,Phleocryptes melanops,L907103,Laguna Jara,2018-02-13 19:15,12.0,-38.4531854,-71.2938881,False,-1,Araucanía
andneg1,Andean Negrito,Lessonia oreas,L907103,Laguna Jara,2018-02-13 19:15,1.0,-38.4531854,-71.2938881,False,-1,Araucanía
soppet1,Soft-plumaged Petrel,Pterodroma mollis,L6960565,"(-57.6797,-63.7905)",2018-02-13 18:02,1.0,-57.679706,-63.790538,True,-1,Magallanes
rempar,Red-masked Parakeet,Psittacara erythrogenys,L940378,Museo de Azapa,2018-02-13 16:00,1.0,-18.5157287,-70.1809323,False,1,Arica y Parinacota
codpet1,Common Diving-Petrel,Pelecanoides urinatrix,L6960558,"(-57.3926,-64.4571)",2018-02-13 15:51,1.0,-57.392585,-64.457074,True,-1,Magallanes
wilpha,Wilson's Phalarope,Phalaropus tricolor,L2996567,RN Los Flamencos--Laguna Estación Chaxa,2018-02-13 13:45,400.0,-23.3308925,-68.1665397,False,-1,Antofagasta
plsfin1,Plumbeous Sierra Finch,Geospizopsis unicolor,L3340410,PN Patagonia--Cueva de las Manos,2018-02-13 10:45,6.0,-46.7317741,-71.772995,False,-1,Aisén del General Carlos Ibáñez del Campo
wtstyr1,White-tailed Shrike-Tyrant,Agriornis albicauda,L6870278,Roquerios camino a Miscanti,2018-02-13 10:24,2.0,-23.708828,-67.818906,True,-1,Antofagasta
wfspet,White-faced Storm-Petrel,Pelagodroma marina,L6930280,"(-38,5372,-74,2721)",2018-02-13 08:51,1.0,-38.537174,-74.272069,True,-1,Bío-Bío
dustap1,Dusky Tapaculo,Scytalopus fuscus,L3857745,San Francisco Lodge,2018-02-13 08:06,1.0,-32.7580629,-70.4803419,False,-1,Valparaíso
lotjae,Long-tailed Jaeger,Stercorarius longicaudus,L6930291,"(-38,8493,-74,2718)",2018-02-13 07:51,1.0,-38.849328,-74.271796,True,-1,Bío-Bío
blupet1,Blue Petrel,Halobaena caerulea,L6960550,"(-56.2349,-65.7994)",2018-02-13 07:13,1.0,-56.234932,-65.79944,True,-1,Magallanes
willet1,Willet,Tringa semipalmata,L9158799,Plaza de Armas de La Serena,2018-02-13,0.0,-29.9027606,-71.2519454,False,-1,Coquimbo
banswa,Bank Swallow,Riparia riparia,L9158799,Plaza de Armas de La Serena,2018-02-13,1.0,-29.9027606,-71.2519454,False,-1,Coquimbo
shicow,Shiny Cowbird,Molothrus bonariensis,L3914417,Parque Uruguay,2018-02-14 16:30,55.0,-33.4220439,-70.6155213,False,-1,Región Metropolitana de Santiago
gyhsif1,Gray-hooded Sierra Finch,Phrygilus gayi,L5067776,Camino Valle Nevado--Plaza de los Pumas,2018-02-14 14:15,5.0,-33.3598718,-70.2904201,False,-1,Región Metropolitana de Santiago
juffir1,Juan Fernandez Firecrown,Sephanoides fernandensis,L7258268,PN Archipiélago Juan Fernández -- Rebaje de la Piña,2018-02-14 11:00,2.0,-33.6659491,-78.8061047,True,-1,Valparaíso
jfttyr1,Juan Fernandez Tit-Tyrant,Anairetes fernandezianus,L7258268,PN Archipiélago Juan Fernández -- Rebaje de la Piña,2018-02-14 11:00,10.0,-33.6659491,-78.8061047,True,-1,Valparaíso
musduc,Muscovy Duck,Cairina moschata,L861844,Humedal Urbano Cartagena,2018-02-14 10:50,1.0,-33.5350454,-71.6022348,False,1,Valparaíso
santer1,Sandwich Tern,Thalasseus sandvicensis,L861844,Humedal Urbano Cartagena,2018-02-14 10:50,1.0,-33.5350454,-71.6022348,False,-1,Valparaíso
ticdor1,Ticking Doradito,Pseudocolopteryx citreola,L504553,SN Humedal Río Maipo--Desembocadura,2018-02-14 07:30,1.0,-33.6198013,-71.6275442,False,-1,Valparaíso
soasni3,Magellanic Snipe,Gallinago magellanica,L594542,Embalse El Yeso--Vegas superiores,2018-02-15 20:05,1.0,-33.6250545,-70.0251281,False,-1,Región Metropolitana de Santiago
gyhsif1,Gray-hooded Sierra Finch,Phrygilus gayi,L594542,Embalse El Yeso--Vegas superiores,2018-02-15 20:05,3.0,-33.6250545,-70.0251281,False,-1,Región Metropolitana de Santiago
royalb1,Royal Albatross,Diomedea epomophora,L7065440,"50 km W of Punta Falsa, Chile",2018-02-15 17:45,1.0,-39.8885,-74.2595,True,-1,Los Ríos
stepet,Stejneger's Petrel,Pterodroma longirostris,L7065440,"50 km W of Punta Falsa, Chile",2018-02-15 17:45,2.0,-39.8885,-74.2595,True,-1,Los Ríos
fuesni1,Fuegian Snipe,Gallinago stricklandii,L6186762,Isla Hornos,2018-02-15 16:30,1.0,-55.9445859,-67.2771835,False,-1,Magallanes
saffin,Saffron Finch,Sicalis flaveola,L6475916,Puerto Saavedra--Sector Río Imperial (sur),2018-02-15 13:52,7.0,-38.8045004,-73.4018925,False,-1,Araucanía
sander,Sanderling,Calidris alba,L6941918,Playa norte - Algarrobo,2018-02-15 12:18,99.0,-33.323152,-71.651775,True,-1,Valparaíso
colplo1,Collared Plover,Charadrius collaris,L6146259,SN Humedal Río Maipo--Matorral dunario,2018-02-15 08:01,13.0,-33.6245899,-71.6299688,False,-1,Valparaíso
redkno,Red Knot,Calidris canutus,L6146259,SN Humedal Río Maipo--Matorral dunario,2018-02-15 08:01,2.0,-33.6245899,-71.6299688,False,-1,Valparaíso
leasan,Least Sandpiper,Calidris minutilla,L6146259,SN Humedal Río Maipo--Matorral dunario,2018-02-15 08:01,1.0,-33.6245899,-71.6299688,False,-1,Valparaíso
semsan,Semipalmated Sandpiper,Calidris pusilla,L6146259,SN Humedal Río Maipo--Matorral dunario,2018-02-15 08:01,27.0,-33.6245899,-71.6299688,False,-1,Valparaíso
ticdor1,Ticking Doradito,Pseudocolopteryx citreola,L6146259,SN Humedal Río Maipo--Matorral dunario,2018-02-15 08:01,1.0,-33.6245899,-71.6299688,False,-1,Valparaíso
seacin1,Seaside Cinclodes,Cinclodes nigrofumosus,L1367804,Playas al sur de Arica,2018-02-15 08:00,6.0,-18.4817206,-70.3286357,True,-1,Arica y Parinacota
pecsan,Pectoral Sandpiper,Calidris melanotos,L570658,SN Laguna Batuco,2018-02-15 07:45,30.0,-33.2064427,-70.8279133,False,-1,Región Metropolitana de Santiago
blkrai,Black Rail,Laterallus jamaicensis,L6970396,"L-255, Yerbas Buenas, VII Región, CL (-35.672, -71.566)",2018-02-16 22:00,1.0,-35.6717145,-71.5663724,True,-1,Maule
lesyel,Lesser Yellowlegs,Tringa flavipes,L509064,SN Laguna Conchalí,2018-02-16 18:30,64.0,-31.8780678,-71.4966631,False,-1,Coquimbo
wanalb,Wandering Albatross,Diomedea exulans,L1413869,Drake Passage--Chilean waters,2018-02-16 15:02,4.0,-58.6180174,-64.7815703,False,-1,Magallanes
greshe,Great Shearwater,Ardenna gravis,L6929894,"(-56.438, -66.277)",2018-02-16 13:30,1.0,-56.4378177,-66.2767977,True,-1,Magallanes
codpet1,Common Diving-Petrel,Pelecanoides urinatrix,L7005249,"(-56.0363,-67.2657)",2018-02-16 09:06,4.0,-56.03631,-67.265683,True,-1,Magallanes
comter,Common Tern,Sterna hirundo,L7013282,Playas al norte de Arica,2018-02-16 07:50,16.0,-18.4465962,-70.3035307,True,-1,Arica y Parinacota
litshe4,Subantarctic Shearwater,Puffinus elegans,L6932976,Puñihuil pelagic,2018-02-16 07:10,2.0,-41.8955051,-74.0385389,True,-1,Los Lagos
soater1,South American Tern,Sterna hirundinacea,L940016,Ferry Punta Delgada-Bahía Azul,2018-02-17 19:14,2000.0,-52.474654,-69.5339944,False,-1,Magallanes
greshe,Great Shearwater,Ardenna gravis,L940016,Ferry Punta Delgada-Bahía Azul,2018-02-17 19:14,1.0,-52.474654,-69.5339944,False,-1,Magallanes
gybsee1,Gray-breasted Seedsnipe,Thinocorus orbignyianus,L6965905,Valle de las Termas del Plomo--Vegas Sur (entre Termas y Estero del Plomo),2018-02-17 19:00,29.0,-33.6348213,-69.9243069,True,-1,Región Metropolitana de Santiago
gyhsif1,Gray-hooded Sierra Finch,Phrygilus gayi,L6965975,Estero del Plomo (Primer Tramo),2018-02-17 16:10,30.0,-33.6496165,-69.9294567,True,-1,Región Metropolitana de Santiago
lakduc1,Lake Duck,Oxyura vittata,L1410481,"Tranque Baño Nuevo, sector Ñirehuao",2018-02-17 16:00,1.0,-45.2578791,-71.4941405,True,-1,Aisén del General Carlos Ibáñez del Campo
silgre1,Silvery Grebe,Podiceps occipitalis,L1410481,"Tranque Baño Nuevo, sector Ñirehuao",2018-02-17 16:00,51.0,-45.2578791,-71.4941405,True,-1,Aisén del General Carlos Ibáñez del Campo
scrcow1,Screaming Cowbird,Molothrus rufoaxillaris,L6125691,Estero Antivero--Las Rosas,2018-02-17 15:51,1.0,-34.6013041,-70.96205,False,-1,Libertador General Bernardo O'Higgins
arcter,Arctic Tern,Sterna paradisaea,L1033571,Transbordador Pargua-Chacao,2018-02-17 15:05,3.0,-41.8143142,-73.4916687,False,-1,Los Lagos
yebfin1,Yellow-bridled Finch,Melanodera xanthogramma,L6983568,La Gran Vega del Marmolejo,2018-02-17 12:40,10.0,-33.6963514,-69.9271631,False,-1,Región Metropolitana de Santiago
spetyr1,Spectacled Tyrant,Hymenops perspicillatus,L6560777,"Laguna, estancia",2018-02-17 11:45,1.0,-51.2824273,-72.630744,True,-1,Magallanes
corpip1,Correndera Pipit,Anthus correndera,L604818,SN Humedal Salinas de Pullally y Dunas de Longotoma--Desembocadura,2018-02-17 11:45,15.0,-32.4101103,-71.4107895,False,-1,Valparaíso
moupar2,Mountain Parakeet,Psilopsiagon aurifrons,L6936624,"CL-Valparaíso-Los Andes (-32.8983,-70.1222)",2018-02-17 11:13,8.0,-32.898299,-70.122245,True,-1,Valparaíso
gramin1,Grayish Miner,Geositta maritima,L6949769,Reserva Nacional La Chimba!,2018-02-17 11:10,29.0,-23.5380195,-70.3592626,True,-1,Antofagasta
margod,Marbled Godwit,Limosa fedoa,L636004,Estero Tongoy--Desembocadura,2018-02-17 10:41,1.0,-30.25497,-71.49359,False,-1,Coquimbo
whcpin,White-cheeked Pintail,Anas bahamensis,L604466,Río Choapa--Desembocadura,2018-02-17 10:00,18.0,-31.6204244,-71.5592766,False,-1,Coquimbo
grhgul,Gray-hooded Gull,Chroicocephalus cirrocephalus,L668852,Río Lluta--Desembocadura,2018-02-17 08:15,1.0,-18.4165392,-70.3224081,False,-1,Arica y Parinacota
yelpip3,Peruvian Pipit,Anthus peruvianus,L668852,Río Lluta--Desembocadura,2018-02-17 08:15,1.0,-18.4165392,-70.3224081,False,-1,Arica y Parinacota
shicow,Shiny Cowbird,Molothrus bonariensis,L4836673,Parque Tres Poniente--Sector Centro,2018-02-18 19:30,80.0,-33.5175332,-70.7786465,False,-1,Región Metropolitana de Santiago
ashgoo1,Ashy-headed Goose,Chloephaga poliocephala,L993661,Estancia Santa Maria,2018-02-18 17:59,28.0,-52.5184667,-70.0543213,True,-1,Magallanes
ruhgoo1,Ruddy-headed Goose,Chloephaga rubidiceps,L993661,Estancia Santa Maria,2018-02-18 17:59,32.0,-52.5184667,-70.0543213,True,-1,Magallanes
limalb1,Light-mantled Albatross,Phoebetria palpebrata,L6971415,"(-58.4127,-63.3498) - Drake Passage 02182018 D",2018-02-18 16:06,1.0,-58.412722,-63.349802,True,-1,Magallanes
bbspet1,Black-bellied Storm-Petrel,Fregetta tropica,L6971415,"(-58.4127,-63.3498) - Drake Passage 02182018 D",2018-02-18 16:06,6.0,-58.412722,-63.349802,True,-1,Magallanes
soppet1,Soft-plumaged Petrel,Pterodroma mollis,L6971415,"(-58.4127,-63.3498) - Drake Passage 02182018 D",2018-02-18 16:06,8.0,-58.412722,-63.349802,True,-1,Magallanes
dovpri1,Antarctic Prion,Pachyptila desolata,L6971415,"(-58.4127,-63.3498) - Drake Passage 02182018 D",2018-02-18 16:06,2.0,-58.412722,-63.349802,True,-1,Magallanes
scrcow1,Screaming Cowbird,Molothrus rufoaxillaris,L6970396,"L-255, Yerbas Buenas, VII Región, CL (-35.672, -71.566)",2018-02-18 13:04,1.0,-35.6717145,-71.5663724,True,-1,Maule
colplo1,Collared Plover,Charadrius collaris,L11307522,Villa Alegre,2018-02-18 13:00,2.0,-35.6751126,-71.744585,False,-1,Maule
stisan,Stilt Sandpiper,Calidris himantopus,L2996567,RN Los Flamencos--Laguna Estación Chaxa,2018-02-18 12:30,2.0,-23.3308925,-68.1665397,False,-1,Antofagasta
gyhsif1,Gray-hooded Sierra Finch,Phrygilus gayi,L6944791,"Quebrada de Cordova, El Tabo, Región de Valparaíso, CL (-33,443, -71,661)",2018-02-18 12:20,1.0,-33.4431225,-71.6609681,True,-1,Valparaíso
magplo1,Magellanic Plover,Pluvianellus socialis,L1033151,Laguna Los Palos,2018-02-18 10:59,12.0,-52.7358759,-71.0616302,False,-1,Magallanes
corpip1,Correndera Pipit,Anthus correndera,L1033151,Laguna Los Palos,2018-02-18 10:59,12.0,-52.7358759,-71.0616302,False,-1,Magallanes
semplo,Semipalmated Plover,Charadrius semipalmatus,L4905604,Lepihué,2018-02-18 08:02,3.0,-41.5931514,-73.5721302,False,-1,Los Lagos
gyhsif1,Gray-hooded Sierra Finch,Phrygilus gayi,L6969225,"San Pedro, Zapallar, Región de Valparaíso, CL (-32,637, -71,428)",2018-02-19 17:34,1.0,-32.6374031,-71.4277266,True,-1,Valparaíso
greshe,Great Shearwater,Ardenna gravis,L6960661,"(-55.5146,-66.1719)",2018-02-19 16:39,1.0,-55.514636,-66.171879,True,-1,Magallanes
macpen1,Macaroni Penguin,Eudyptes chrysolophus,L6960643,"(-56.0564,-65.9020)",2018-02-19 14:25,4.0,-56.056387,-65.902013,True,-1,Magallanes
soppet1,Soft-plumaged Petrel,Pterodroma mollis,L6960643,"(-56.0564,-65.9020)",2018-02-19 14:25,1.0,-56.056387,-65.902013,True,-1,Magallanes
slbpri1,Slender-billed Prion,Pachyptila belcheri,L6960643,"(-56.0564,-65.9020)",2018-02-19 14:25,1.0,-56.056387,-65.902013,True,-1,Magallanes
codpet1,Common Diving-Petrel,Pelecanoides urinatrix,L6960632,"(-56.7988,-65.5081)",2018-02-19 11:20,2.0,-56.798818,-65.508077,True,-1,Magallanes
dovpri1,Antarctic Prion,Pachyptila desolata,L1413869,Drake Passage--Chilean waters,2018-02-19 11:15,2.0,-58.6180174,-64.7815703,False,-1,Magallanes
silgre1,Silvery Grebe,Podiceps occipitalis,L1033151,Laguna Los Palos,2018-02-19 09:30,70.0,-52.7358759,-71.0616302,False,-1,Magallanes
corpip1,Correndera Pipit,Anthus correndera,L1033151,Laguna Los Palos,2018-02-19 09:30,12.0,-52.7358759,-71.0616302,False,-1,Magallanes
sooter1,Sooty Tern,Onychoprion fuscatus,L7043987,"Antofagasta (Pelagic), CL",2018-02-19 08:54,2.0,-23.6214358,-70.8066809,True,-1,Antofagasta
rebtro,Red-billed Tropicbird,Phaethon aethereus,L7043987,"Antofagasta (Pelagic), CL",2018-02-19 08:54,1.0,-23.6214358,-70.8066809,True,-1,Antofagasta
rispet1,Ringed Storm-Petrel,Hydrobates hornbyi,L7043987,"Antofagasta (Pelagic), CL",2018-02-19 08:54,2.0,-23.6214358,-70.8066809,True,-1,Antofagasta
bulshe,Buller's Shearwater,Ardenna bulleri,L7043987,"Antofagasta (Pelagic), CL",2018-02-19 08:54,16.0,-23.6214358,-70.8066809,True,-1,Antofagasta
banswa,Bank Swallow,Riparia riparia,L907103,Laguna Jara,2018-02-20 18:50,2.0,-38.4531854,-71.2938881,False,-1,Araucanía
helpip1,Hellmayr's Pipit,Anthus hellmayri,L907103,Laguna Jara,2018-02-20 18:50,5.0,-38.4531854,-71.2938881,False,-1,Araucanía
scrcow1,Screaming Cowbird,Molothrus rufoaxillaris,L3178151,Paso Cuñao,2018-02-20 17:30,10.0,-35.9018437,-71.7427826,False,-1,Maule
pumstp1,Pincoya Storm-Petrel,Oceanites pincoyae,L6966030,"Golfo Corcovado, Navegación a Quellón",2018-02-20 11:32,10.0,-43.3630556,-73.4461111,True,-1,Los Lagos
mallar3,Mallard,Anas platyrhynchos,L862580,Isla Santa María,2018-02-20 11:00,9.0,-37.0348991,-73.5074615,False,1,Bío-Bío
incter1,Inca Tern,Larosterna inca,L1048910,Arica--Puerto,2018-02-20 07:30,2000.0,-18.4724046,-70.3238511,False,-1,Arica y Parinacota
comter,Common Tern,Sterna hirundo,L2345204,Complejo Humedal Rocuant-Andalién,2018-02-21 11:00,1.0,-36.7393839,-73.0612278,False,-1,Bío-Bío
semplo,Semipalmated Plover,Charadrius semipalmatus,L772324,Lago Budi--Puerto Domínguez,2018-02-21 09:00,1.0,-38.8947905,-73.2558382,False,-1,Araucanía
robpoc1,Rosy-billed Pochard,Netta peposaca,L604811,SN Humedales de Tongoy--Estero Pachingo Desembocadura,2018-02-21 08:40,3.0,-30.3052065,-71.5723658,False,-1,Coquimbo
uplsan,Upland Sandpiper,Bartramia longicauda,L674599,Antofagasta,2018-02-21 06:04,1.0,-23.6495561,-70.3948975,False,-1,Antofagasta
wispet,Wilson's Storm-Petrel,Oceanites oceanicus,L2951922,San Fabián,2018-02-21,1.0,-36.5559815,-71.5555,False,-1,Ñuble
blnswa2,Black-necked Swan,Cygnus melancoryphus,L516521,Caulín,2018-02-22 16:23,650.0,-41.8259378,-73.6275078,False,-1,Los Lagos
saffin,Saffron Finch,Sicalis flaveola,L5054215,Villarrica--Humedal Urbano Mallolafken,2018-02-22 13:30,4.0,-39.278091,-72.2206329,False,-1,Araucanía
snoplo5,Snowy Plover,Charadrius nivosus,L6137507,Isla Mocha--Las docas,2018-02-22 12:41,20.0,-38.412284,-73.931423,True,-1,Bío-Bío
semplo,Semipalmated Plover,Charadrius semipalmatus,L6137507,Isla Mocha--Las docas,2018-02-22 12:41,1.0,-38.412284,-73.931423,True,-1,Bío-Bío
kerpet,Kermadec Petrel,Pterodroma neglecta,L7258317,PN Archipiélago Juan Fernández -- Isla Santa Clara,2018-02-22 10:00,2.0,-33.7099421,-78.9378548,True,-1,Valparaíso
manduc,Mandarin Duck,Aix galericulata,L1287187,Los Fresnos - Estero Nonguén,2018-02-22 07:38,1.0,-36.8287469,-73.0100566,True,1,Bío-Bío
gyhsif1,Gray-hooded Sierra Finch,Phrygilus gayi,L690096,SN Yerba Loca [usar hotspots específicos],2018-02-22 02:00,1.0,-33.303847,-70.3186798,False,-1,Región Metropolitana de Santiago
slbpar1,Slender-billed Parakeet,Enicognathus leptorhynchus,L2030121,Lican Ray,2018-02-23 19:30,80.0,-39.4848327,-72.1593189,False,-1,Araucanía
saffin,Saffron Finch,Sicalis flaveola,L6976083,"Calle Campus Isla Teja Uach, Valdivia CL-XIV Los Ríos Region (-39.8063,-73.2546)",2018-02-23 16:09,2.0,-39.806267,-73.254564,True,-1,Los Ríos
bthhue1,Black-throated Huet-huet,Pteroptochos tarnii,L7701763,"Sector San Juan, Florida",2018-02-23 13:00,2.0,-36.8176164,-72.7719811,True,-1,Bío-Bío
amgplo,American Golden-Plover,Pluvialis dominica,L4905604,Lepihué,2018-02-23 11:34,1.0,-41.5931514,-73.5721302,False,-1,Los Lagos
gyhsif1,Gray-hooded Sierra Finch,Phrygilus gayi,L6517043,"Cordón de la Retamilla Región Metropolitana, CL (-33.185, -70.97)",2018-02-23 09:00,1.0,-33.184761,-70.9697556,True,-1,Región Metropolitana de Santiago
refcoo1,Red-fronted Coot,Fulica rufifrons,L904625,Río Loa--Desembocadura,2018-02-23 08:30,3.0,-21.4292013,-70.0585485,False,-1,Tarapacá
ruthaw1,Rufous-tailed Hawk,Buteo ventralis,L3220346,Río Chepu,2018-02-23 07:35,2.0,-42.0501212,-73.9742088,False,-1,Los Lagos
pecsan,Pectoral Sandpiper,Calidris melanotos,L570658,SN Laguna Batuco,2018-02-24 16:33,3.0,-33.2064427,-70.8279133,False,-1,Región Metropolitana de Santiago
whfibi,White-faced Ibis,Plegadis chihi,L570658,SN Laguna Batuco,2018-02-24 16:33,19.0,-33.2064427,-70.8279133,False,-1,Región Metropolitana de Santiago
gyhsif1,Gray-hooded Sierra Finch,Phrygilus gayi,L6978979,"(-33,326, -70,284)",2018-02-24 10:45,2.0,-33.3258581,-70.283912,True,-1,Región Metropolitana de Santiago
balori,Baltimore Oriole,Icterus galbula,L7025946,Punta Blanca,2018-02-24 10:38,1.0,-22.192259,-70.225329,True,-1,Antofagasta
willet1,Willet,Tringa semipalmata,L691243,Río Andalien--Desembocadura,2018-02-24 08:37,1.0,-36.7418086,-73.0162556,False,-1,Bío-Bío
truter,Snowy-crowned Tern,Sterna trudeaui,L691243,Río Andalien--Desembocadura,2018-02-24 08:37,51.0,-36.7418086,-73.0162556,False,-1,Bío-Bío
hudgod,Hudsonian Godwit,Limosa haemastica,L629583,SN Península de Hualpén--Humedal Lenga,2018-02-25 19:00,42.0,-36.7694689,-73.1668103,False,-1,Bío-Bío
chifla1,Chilean Flamingo,Phoenicopterus chilensis,L604811,SN Humedales de Tongoy--Estero Pachingo Desembocadura,2018-02-25 18:45,1.0,-30.3052065,-71.5723658,False,-1,Coquimbo
gyhsif1,Gray-hooded Sierra Finch,Phrygilus gayi,L3758370,"Valle Los Naranjos, Curacaví",2018-02-25 18:00,1.0,-33.376536,-71.187489,True,-1,Región Metropolitana de Santiago
redjun,Red Junglefowl,Gallus gallus,L3279743,Ten-Ten,2018-02-25 13:48,2.0,-42.4682508,-73.7639773,False,1,Los Lagos
snoplo5,Snowy Plover,Charadrius nivosus,L6141878,Isla Mocha--aeródromo ,2018-02-25 09:35,2.0,-38.385922,-73.872945,True,-1,Bío-Bío
dovpri1,Antarctic Prion,Pachyptila desolata,L1413869,Drake Passage--Chilean waters,2018-02-26 14:55,1.0,-58.6180174,-64.7815703,False,-1,Magallanes
gregre1,Great Grebe,Podiceps major,L6990788,Centro Huasco,2018-02-26 12:48,6.0,-28.4644588,-71.219725,True,-1,Atacama
shbcan2,Sharp-billed Canastero,Asthenes pyrrholeuca,L3226509,PN Pali Aike,2018-02-26 12:00,1.0,-52.124923,-69.7727967,False,-1,Magallanes
fragul,Franklin's Gull,Leucophaeus pipixcan,L791057,Estero El Culebrón--Desembocadura,2018-02-27 19:35,4200.0,-29.9617015,-71.3218206,False,-1,Coquimbo
impcor1,Imperial Cormorant,Leucocarbo atriceps,L6996622,"(-53.17, -70.907)",2018-02-27 17:52,1040.0,-53.1696067,-70.906748,True,-1,Magallanes
bbspet1,Black-bellied Storm-Petrel,Fregetta tropica,L7005227,"(-58.9873,-65.0774)",2018-02-27 15:30,3.0,-58.987319,-65.077438,True,-1,Magallanes
osprey,Osprey,Pandion haliaetus,L571417,Lago Colbún,2018-02-27 13:00,1.0,-35.718643,-71.209259,False,-1,Maule
wanalb,Wandering Albatross,Diomedea exulans,L7006313,"-45.6620, -76.0210",2018-02-27 10:15,8.0,-45.662,-76.021,True,-1,Aisén del General Carlos Ibáñez del Campo
whcpin,White-cheeked Pintail,Anas bahamensis,L822631,Buque Quemado,2018-02-27 08:00,4.0,-52.4068174,-69.5719528,False,-1,Magallanes
crachi1,Crag Chilia,Ochetorhynchus melanurus,L7001543,"CL-Metropolitana de Santiago-Colina (-33,2043,-70,6445)",2018-02-28 19:57,1.0,-33.20434,-70.644455,True,-1,Región Metropolitana de Santiago
refcoo1,Red-fronted Coot,Fulica rufifrons,L904625,Río Loa--Desembocadura,2018-02-28 18:50,7.0,-21.4292013,-70.0585485,False,-1,Tarapacá
bkbalb,Black-browed Albatross,Thalassarche melanophris,L7000973,"(-54.918, -67.581)",2018-02-28 17:35,890.0,-54.9180254,-67.5806556,True,-1,Magallanes
gramin1,Grayish Miner,Geositta maritima,L7001933,"Maria Elena, Región de Antofagasta, CL (-22,118, -69,15)",2018-02-28 16:36,8.0,-22.1180694,-69.1500975,True,-1,Antofagasta
juffir1,Juan Fernandez Firecrown,Sephanoides fernandensis,L5240320,PN Archipiélago Juan Fernández--Plazoleta el Yunque,2018-02-28 16:00,6.0,-33.6495471,-78.8425148,False,-1,Valparaíso
jfttyr1,Juan Fernandez Tit-Tyrant,Anairetes fernandezianus,L5240320,PN Archipiélago Juan Fernández--Plazoleta el Yunque,2018-02-28 16:00,4.0,-33.6495471,-78.8425148,False,-1,Valparaíso
saffin,Saffron Finch,Sicalis flaveola,L7065442,Puerto Montt,2018-02-28 10:00,1.0,-41.4695025,-72.9647756,True,-1,Los Lagos
gyhsif1,Gray-hooded Sierra Finch,Phrygilus gayi,L516158,Embalse El Yeso,2018-02-28 09:15,24.0,-33.6474929,-70.0670242,False,-1,Región Metropolitana de Santiago
rudtur,Ruddy Turnstone,Arenaria interpres,L7005848,"336-386 Avenida República de Croacia, Antofagasta, Región de Antofagasta, CL (-23.675, -70.414)",2018-03-01 19:44,57.0,-23.6752358,-70.41355,True,-1,Antofagasta
gyhsif1,Gray-hooded Sierra Finch,Phrygilus gayi,L7005303,"CL-Metropolitana de Santiago-Lo Barnechea (-33,3433,-70,3002)",2018-03-01 18:05,1.0,-33.343333,-70.300224,True,-1,Región Metropolitana de Santiago
moucar1,Mountain Caracara,Daptrius megalopterus,L5094147,Las Mellizas,2018-03-01 18:00,1.0,-38.3649449,-71.4800978,False,-1,Araucanía
slbpri1,Slender-billed Prion,Pachyptila belcheri,L7057163,"(-58.8651,-66.8260)",2018-03-01 16:16,1.0,-58.865109,-66.82603,True,-1,Magallanes
codpet1,Common Diving-Petrel,Pelecanoides urinatrix,L7057163,"(-58.8651,-66.8260)",2018-03-01 16:16,2.0,-58.865109,-66.82603,True,-1,Magallanes
bkbalb,Black-browed Albatross,Thalassarche melanophris,L7057168,"(-58.2342,-66.6926)",2018-03-01 13:26,1.0,-58.234216,-66.692587,True,-1,Magallanes
juffir1,Juan Fernandez Firecrown,Sephanoides fernandensis,L7258340,San Juan Bautista,2018-03-01 11:00,6.0,-33.6422292,-78.8273048,True,-1,Valparaíso
jfttyr1,Juan Fernandez Tit-Tyrant,Anairetes fernandezianus,L7258340,San Juan Bautista,2018-03-01 11:00,2.0,-33.6422292,-78.8273048,True,-1,Valparaíso
whthaw1,White-throated Hawk,Buteo albigula,L7012891,Catedral de marmol,2018-03-01 10:00,1.0,-46.6597086,-72.6301683,True,-1,Aisén del General Carlos Ibáñez del Campo
crachi1,Crag Chilia,Ochetorhynchus melanurus,L7003126,"CL-Metropolitana de Santiago-Colina (-33,2034,-70,6460)",2018-03-01 08:30,2.0,-33.203447,-70.646005,True,-1,Región Metropolitana de Santiago
wfspet,White-faced Storm-Petrel,Pelagodroma marina,L7010485,"-40.8125, -74.8550",2018-03-02 19:00,8.0,-40.8125,-74.855,True,-1,Los Lagos
gyhsif1,Gray-hooded Sierra Finch,Phrygilus gayi,L5534977,"CL-Metropolitana de Santiago-Lo Barnechea-Calle Los Cóndores - -33,3445x-70,2993",2018-03-02 18:00,20.0,-33.34452,-70.299323,True,-1,Región Metropolitana de Santiago
wanalb,Wandering Albatross,Diomedea exulans,L7012280,"(-55.5114,-65.9174) drake day 2 happy hour",2018-03-02 17:45,11.0,-55.511381,-65.917389,True,-1,Magallanes
soapas1,South American Painted-Snipe,Nycticryphes semicollaris,L7009435,Camino Yerbas Buenas,2018-03-02 12:00,1.0,-35.8256948,-71.5816838,True,-1,Maule
cingrt1,Cinereous Ground-Tyrant,Muscisaxicola cinereus,L7010236,Caspiche,2018-03-02 10:30,2.0,-27.6844497,-69.2915041,True,-1,Atacama
stepet,Stejneger's Petrel,Pterodroma longirostris,L7018288,At sea,2018-03-02 08:30,1.0,-42.31575,-75.0297,True,-1,Los Lagos
litshe4,Subantarctic Shearwater,Puffinus elegans,L7018288,At sea,2018-03-02 08:30,1.0,-42.31575,-75.0297,True,-1,Los Lagos
margod,Marbled Godwit,Limosa fedoa,L2869629,Estero Tongoy,2018-03-03 19:34,1.0,-30.2601051,-71.4792395,True,-1,Coquimbo
categr,Cattle Egret,Bubulcus ibis,L606243,Humedal Tres Puentes,2018-03-03 17:10,4.0,-53.1162328,-70.8813,False,-1,Magallanes
sctear1,Scale-throated Earthcreeper,Upucerthia dumetaria,L6673203,"(-33.3446,-70.3000)",2018-03-03 13:27,3.0,-33.344571,-70.29998,True,-1,Región Metropolitana de Santiago
andgul1,Andean Gull,Chroicocephalus serranus,L571417,Lago Colbún,2018-03-03 09:30,20.0,-35.718643,-71.209259,False,-1,Maule
osprey,Osprey,Pandion haliaetus,L571417,Lago Colbún,2018-03-03 09:30,1.0,-35.718643,-71.209259,False,-1,Maule
blkski,Black Skimmer,Rynchops niger,L7020761,"playa los molinos Región de los Ríos, CL (-39,846, -73,393)",2018-03-04 20:10,1.0,-39.8464791,-73.3928263,True,-1,Los Ríos
flistd1,Flightless Steamer-Duck,Tachyeres pteneres,L4288889,Punta Gusano,2018-03-04 18:01,21.0,-54.9250211,-67.6110864,False,-1,Magallanes
slbpri1,Slender-billed Prion,Pachyptila belcheri,L7059913,"(-57.714, -65.531)",2018-03-04 15:42,1.0,-57.7138106,-65.5313563,True,-1,Magallanes
gyhsif1,Gray-hooded Sierra Finch,Phrygilus gayi,L3222928,Glaciar del Morado,2018-03-04 12:10,0.0,-33.747727,-70.0523579,False,-1,Región Metropolitana de Santiago
chiwig1,Chiloe Wigeon,Mareca sibilatrix,L3984468,SN El Zaino–Laguna El Copín--Laguna El Copín,2018-03-04 10:30,100.0,-32.6014217,-70.5571604,False,-1,Valparaíso
whwcoo1,White-winged Coot,Fulica leucoptera,L3984468,SN El Zaino–Laguna El Copín--Laguna El Copín,2018-03-04 10:30,90.0,-32.6014217,-70.5571604,False,-1,Valparaíso
greyel,Greater Yellowlegs,Tringa melanoleuca,L3984468,SN El Zaino–Laguna El Copín--Laguna El Copín,2018-03-04 10:30,3.0,-32.6014217,-70.5571604,False,-1,Valparaíso
sctear1,Scale-throated Earthcreeper,Upucerthia dumetaria,L3984468,SN El Zaino–Laguna El Copín--Laguna El Copín,2018-03-04 10:30,3.0,-32.6014217,-70.5571604,False,-1,Valparaíso
corpip1,Correndera Pipit,Anthus correndera,L7017312,"CL-Magallanes and Antartica Chilena-Punta Arenas (-52.7909,-71.0975)",2018-03-04 09:51,27.0,-52.790919,-71.097525,True,-1,Magallanes
andduc1,Andean Duck,Oxyura ferruginea,L3219145,Chepu,2018-03-04 09:00,2.0,-42.0441936,-74.002533,True,-1,Los Lagos
wrlrus1,Wren-like Rushbird,Phleocryptes melanops,L724676,Laguna Inka Coya,2018-03-05 18:00,3.0,-22.3386045,-68.5998774,False,-1,Antofagasta
spwpig3,Spot-winged Pigeon,Patagioenas maculosa,L724664,Chiu Chiu,2018-03-05 17:05,7.0,-22.3401327,-68.6517298,False,-1,Antofagasta
comter,Common Tern,Sterna hirundo,L861844,Humedal Urbano Cartagena,2018-03-05 16:00,1.0,-33.5350454,-71.6022348,False,-1,Valparaíso
wispet,Wilson's Storm-Petrel,Oceanites oceanicus,L2951922,San Fabián,2018-03-05,1.0,-36.5559815,-71.5555,False,-1,Ñuble
soasni3,Magellanic Snipe,Gallinago magellanica,L594542,Embalse El Yeso--Vegas superiores,2018-03-06 19:13,1.0,-33.6250545,-70.0251281,False,-1,Región Metropolitana de Santiago
gyhsif1,Gray-hooded Sierra Finch,Phrygilus gayi,L594542,Embalse El Yeso--Vegas superiores,2018-03-06 19:13,1.0,-33.6250545,-70.0251281,False,-1,Región Metropolitana de Santiago
cibgrt1,Cinnamon-bellied Ground-Tyrant,Muscisaxicola capistratus,L5094147,Las Mellizas,2018-03-06 18:00,1.0,-38.3649449,-71.4800978,False,-1,Araucanía
swtgul1,Swallow-tailed Gull,Creagrus furcatus,L7029953,"-23.2069, -73.8687",2018-03-06 17:07,2.0,-23.2069,-73.8687,True,-1,Antofagasta
jufpet,Juan Fernandez Petrel,Pterodroma externa,L7029953,"-23.2069, -73.8687",2018-03-06 17:07,10.0,-23.2069,-73.8687,True,-1,Antofagasta
kerpet,Kermadec Petrel,Pterodroma neglecta,L7029916,"-24.8744, -73.3205",2018-03-06 11:10,1.0,-24.8744,-73.3205,True,-1,Antofagasta
sooter1,Sooty Tern,Onychoprion fuscatus,L7029936,"-25.1548, -73.2207",2018-03-06 10:10,2.0,-25.1548,-73.2207,True,-1,Antofagasta
rebtro,Red-billed Tropicbird,Phaethon aethereus,L7029936,"-25.1548, -73.2207",2018-03-06 10:10,2.0,-25.1548,-73.2207,True,-1,Antofagasta
wbspet1,White-bellied Storm-Petrel,Fregetta grallaria,L7029936,"-25.1548, -73.2207",2018-03-06 10:10,1.0,-25.1548,-73.2207,True,-1,Antofagasta
chifla1,Chilean Flamingo,Phoenicopterus chilensis,L7145077,Parque Nacional Torres del Paine,2018-03-06 09:30,225.0,-50.9423,-73.4068,True,-1,Magallanes
auspar1,Austral Parakeet,Enicognathus ferrugineus,L7145077,Parque Nacional Torres del Paine,2018-03-06 09:30,75.0,-50.9423,-73.4068,True,-1,Magallanes
thbsis1,Thick-billed Siskin,Spinus crassirostris,L594542,Embalse El Yeso--Vegas superiores,2018-03-06 08:00,2.0,-33.6250545,-70.0251281,False,-1,Región Metropolitana de Santiago
wispet,Wilson's Storm-Petrel,Oceanites oceanicus,L1115113,San Alfonso,2018-03-06,1.0,-33.7264812,-70.3208256,False,-1,Región Metropolitana de Santiago
manshe,Manx Shearwater,Puffinus puffinus,L751332,Cabo de Hornos--Mar (Cape Horn at sea),2018-03-07 15:05,5.0,-56.078167,-66.6870117,False,-1,Magallanes
redpha1,Red Phalarope,Phalaropus fulicarius,L7166069,"(-55,5562,-65,5824)",2018-03-07 13:04,3.0,-55.556167,-65.582396,True,-1,Magallanes
slbpri1,Slender-billed Prion,Pachyptila belcheri,L7166069,"(-55,5562,-65,5824)",2018-03-07 13:04,1.0,-55.556167,-65.582396,True,-1,Magallanes
stisan,Stilt Sandpiper,Calidris himantopus,L668852,Río Lluta--Desembocadura,2018-03-07 10:00,2.0,-18.4165392,-70.3224081,False,-1,Arica y Parinacota
comter,Common Tern,Sterna hirundo,L861844,Humedal Urbano Cartagena,2018-03-07 09:45,1.0,-33.5350454,-71.6022348,False,-1,Valparaíso
gyhsif1,Gray-hooded Sierra Finch,Phrygilus gayi,L4089879,Camino Embalse El Yeso,2018-03-07 07:56,20.0,-33.7735602,-70.1683715,True,-1,Región Metropolitana de Santiago
rucdot1,Rufous-chested Dotterel,Charadrius modestus,L7037451,"Y-71, Porvenir, Región de Magallanes y de la Antártica Chilena, CL (-53.448, -70.09)",2018-03-08 19:33,40.0,-53.4483452,-70.0903763,True,-1,Magallanes
souful1,Southern Fulmar,Fulmarus glacialoides,L7188563,on the way to Punta Arenas,2018-03-08 18:00,60.0,-54.9801865,-69.1050854,True,-1,Magallanes
blkvul,Black Vulture,Coragyps atratus,L3091169,Freirina,2018-03-08 18:00,8.0,-28.5099277,-71.0807276,False,-1,Atacama
wispet,Wilson's Storm-Petrel,Oceanites oceanicus,L6945246,Rivadavia,2018-03-08,1.0,-29.9769442,-70.5605077,False,-1,Coquimbo
pattyr2,Patagonian Tyrant,Colorhamphus parvirostris,L7055196,Bosque Santa Julia,2018-03-09 15:20,1.0,-31.8379996,-71.5180832,False,-1,Coquimbo
gyfcin1,Gray-flanked Cinclodes,Cinclodes oustaleti,L3460560,Road drive south Punta Arenas,2018-03-09 14:00,4.0,-53.5270065,-70.945673,True,-1,Magallanes
categr,Cattle Egret,Bubulcus ibis,L606243,Humedal Tres Puentes,2018-03-09 13:45,3.0,-53.1162328,-70.8813,False,-1,Magallanes
whcpin,White-cheeked Pintail,Anas bahamensis,L482297,SN Humedales del Río Maullín--Humedal Las Lajas,2018-03-09 12:30,2.0,-41.5831895,-73.6756253,False,-1,Los Lagos
brnboo,Brown Booby,Sula leucogaster,L1108905,RN Pingüino de Humboldt--Isla Chañaral,2018-03-09 12:00,1.0,-29.0360601,-71.5790176,False,-1,Atacama
magplo1,Magellanic Plover,Pluvianellus socialis,L1033151,Laguna Los Palos,2018-03-09 09:45,24.0,-52.7358759,-71.0616302,False,-1,Magallanes
stisan,Stilt Sandpiper,Calidris himantopus,L3498432,desembocadura rio lluta,2018-03-09 08:00,1.0,-18.4165901,-70.3252459,True,-1,Arica y Parinacota
redpha1,Red Phalarope,Phalaropus fulicarius,L11096919,"CL (-39.928, -73.774)",2018-03-09 07:22,52.0,-39.9276922,-73.7743725,True,-1,Los Ríos
royalb1,Royal Albatross,Diomedea epomophora,L11096919,"CL (-39.928, -73.774)",2018-03-09 07:22,1.0,-39.9276922,-73.7743725,True,-1,Los Ríos
wispet,Wilson's Storm-Petrel,Oceanites oceanicus,L11321973,Planta de Filtros y Secado Codelco Andina,2018-03-09,1.0,-32.9254128,-70.2884501,True,-1,Valparaíso
grhowl2,Lesser Horned Owl,Bubo magellanicus,L7042446,"Palmilla, VI Región, CL (-34.48, -71.375)",2018-03-10 19:51,1.0,-34.4795641,-71.3749324,True,-1,Libertador General Bernardo O'Higgins
santer1,Sandwich Tern,Thalasseus sandvicensis,L861844,Humedal Urbano Cartagena,2018-03-10 14:40,3.0,-33.5350454,-71.6022348,False,-1,Valparaíso
stepet,Stejneger's Petrel,Pterodroma longirostris,L11096928,"CL (-35.657, -73.128)",2018-03-10 12:56,3.0,-35.6566316,-73.1278301,True,-1,Maule
chvtyr2,Chocolate-vented Tyrant,Neoxolmis rufiventris,L572757,Bahía Chilota,2018-03-10 12:00,1.0,-53.2988763,-70.4218483,False,-1,Magallanes
margod,Marbled Godwit,Limosa fedoa,L636004,Estero Tongoy--Desembocadura,2018-03-10 11:07,1.0,-30.25497,-71.49359,False,-1,Coquimbo
rubsee2,Rufous-bellied Seedsnipe,Attagis gayi,L7118884,Paso John Gardner (east side),2018-03-10 09:55,2.0,-50.9406428,-73.1804824,True,-1,Magallanes
manshe,Manx Shearwater,Puffinus puffinus,L7043909,"CL-XIV Los Ríos Region-Valdivia (-39.7201,-73.4046)",2018-03-10 07:17,1.0,-39.720052,-73.404633,True,-1,Los Ríos
soppet1,Soft-plumaged Petrel,Pterodroma mollis,L7165800,"(-45,0416,-74,5312)",2018-03-11 16:03,1.0,-45.041565,-74.531173,True,-1,Aisén del General Carlos Ibáñez del Campo
sooshe,Sooty Shearwater,Ardenna grisea,L7165800,"(-45,0416,-74,5312)",2018-03-11 16:03,10000.0,-45.041565,-74.531173,True,-1,Aisén del General Carlos Ibáñez del Campo
margod,Marbled Godwit,Limosa fedoa,L13829594,Estero Tongoy,2018-03-11 15:30,1.0,-30.2573221,-71.489122,True,-1,Coquimbo
wanalb,Wandering Albatross,Diomedea exulans,L7165814,"(-46,4496,-75,6545)",2018-03-11 11:00,1.0,-46.44956,-75.654484,True,-1,Aisén del General Carlos Ibáñez del Campo
rubsee2,Rufous-bellied Seedsnipe,Attagis gayi,L638139,Piedra Numerada,2018-03-11 09:54,4.0,-33.2972472,-70.2170563,False,-1,Región Metropolitana de Santiago
cingrt1,Cinereous Ground-Tyrant,Muscisaxicola cinereus,L638139,Piedra Numerada,2018-03-11 09:54,9.0,-33.2972472,-70.2170563,False,-1,Región Metropolitana de Santiago
wispet,Wilson's Storm-Petrel,Oceanites oceanicus,L7165818,"(-46,8977,-75,9324)",2018-03-11 09:35,5.0,-46.897708,-75.932383,True,-1,Aisén del General Carlos Ibáñez del Campo
grhowl2,Lesser Horned Owl,Bubo magellanicus,L7049771,"Cabaña del Río, Santa Cruz, CL",2018-03-11 08:27,1.0,-34.4795231,-71.3744952,True,-1,Libertador General Bernardo O'Higgins
brtcur,Bristle-thighed Curlew,Numenius tahitiensis,L7142196,"CL-Valparaíso-Hanga Roa-Islas del Océano - -27,1425x-109,4268",2018-03-12 19:00,2.0,-27.142453,-109.426754,True,-1,Valparaíso
whimbr,Whimbrel,Numenius phaeopus,L7142196,"CL-Valparaíso-Hanga Roa-Islas del Océano - -27,1425x-109,4268",2018-03-12 19:00,1.0,-27.142453,-109.426754,True,-1,Valparaíso
pumstp1,Pincoya Storm-Petrel,Oceanites pincoyae,L7219526,leaving Puerto Montt,2018-03-12 19:00,70.0,-41.7874559,-72.9181137,True,-1,Los Lagos
calqua,California Quail,Callipepla californica,L774555,Campus Sur -  Universidad de Chile,2018-03-12 16:00,12.0,-33.5708994,-70.6356955,False,0,Región Metropolitana de Santiago
leasee1,Least Seedsnipe,Thinocorus rumicivorus,L7057167,"(-39.9417,-73.3935)",2018-03-12 14:46,48.0,-39.941693,-73.393455,True,-1,Los Ríos
stisan,Stilt Sandpiper,Calidris himantopus,L668852,Río Lluta--Desembocadura,2018-03-12 09:30,1.0,-18.4165392,-70.3224081,False,-1,Arica y Parinacota
elctin1,Elegant Crested-Tinamou,Eudromia elegans,L3340351,Chile Chico--aeródromo,2018-03-12 09:00,4.0,-46.5824997,-71.69034,False,-1,Aisén del General Carlos Ibáñez del Campo
wispet,Wilson's Storm-Petrel,Oceanites oceanicus,L7165716,"(-36,3157,-73,5708)",2018-03-13 16:30,100.0,-36.315745,-73.570799,True,-1,Bío-Bío
pumstp1,Pincoya Storm-Petrel,Oceanites pincoyae,L7165716,"(-36,3157,-73,5708)",2018-03-13 16:30,2.0,-36.315745,-73.570799,True,-1,Bío-Bío
stepet,Stejneger's Petrel,Pterodroma longirostris,L7165716,"(-36,3157,-73,5708)",2018-03-13 16:30,22.0,-36.315745,-73.570799,True,-1,Bío-Bío
cappet,Cape Petrel,Daption capense,L7071858,200 kms off San Antonio,2018-03-13 14:45,1.0,-33.6151911,-72.5213099,True,-1,Valparaíso
lotjae,Long-tailed Jaeger,Stercorarius longicaudus,L7165723,"(-36,8010,-73,8411)",2018-03-13 14:30,1.0,-36.800991,-73.841146,True,-1,Bío-Bío
wfspet,White-faced Storm-Petrel,Pelagodroma marina,L7165749,"(-38,2687,-74,2894)",2018-03-13 09:30,3.0,-38.268672,-74.289409,True,-1,Bío-Bío
dovpri1,Antarctic Prion,Pachyptila desolata,L7113321,"Drake Passage Southbound. (-57.857, -64.106)",2018-03-14 17:01,1.0,-57.8568642,-64.1064109,True,-1,Magallanes
blnswa2,Black-necked Swan,Cygnus melancoryphus,L1006764,Humedal Ojos de Mar,2018-03-14 15:00,60.0,-33.6068636,-71.6231185,False,-1,Valparaíso
gyhsif1,Gray-hooded Sierra Finch,Phrygilus gayi,L4026975,Loma Linda,2018-03-14 11:00,2.0,-33.4357636,-71.6771027,False,-1,Valparaíso
slbpri1,Slender-billed Prion,Pachyptila belcheri,L7113332,"Drake Passage Southboind. (-56.472, -65.299)",2018-03-14 08:57,1.0,-56.4724271,-65.2988093,True,-1,Magallanes
maspet3,Masatierra Petrel,Pterodroma defilippiana,L7165701,"(-29,8697,-71,3782)",2018-03-15 19:31,6.0,-29.869702,-71.378155,True,-1,Coquimbo
sbgtyr1,Spot-billed Ground-Tyrant,Muscisaxicola maculirostris,L819912,Camino Embalse El Yeso--Vega al costado del camino,2018-03-15 17:49,3.0,-33.6900671,-70.1072252,False,-1,Región Metropolitana de Santiago
gyhsif1,Gray-hooded Sierra Finch,Phrygilus gayi,L819912,Camino Embalse El Yeso--Vega al costado del camino,2018-03-15 17:49,8.0,-33.6900671,-70.1072252,False,-1,Región Metropolitana de Santiago
ashgoo1,Ashy-headed Goose,Chloephaga poliocephala,L7093249,Vegas de Marimenuco,2018-03-15 15:00,200.0,-38.7688909,-71.2257278,True,-1,Araucanía
soasni3,Magellanic Snipe,Gallinago magellanica,L802007,Valle de las Termas del Plomo,2018-03-15 13:00,1.0,-33.6314865,-69.9248886,False,-1,Región Metropolitana de Santiago
whcpin,White-cheeked Pintail,Anas bahamensis,L822631,Buque Quemado,2018-03-15 11:25,4.0,-52.4068174,-69.5719528,False,-1,Magallanes
burowl,Burrowing Owl,Athene cunicularia,L7065835,San Juan,2018-03-15 09:00,4.0,-33.6633381,-71.5495353,True,-1,Los Lagos
yelpip3,Peruvian Pipit,Anthus peruvianus,L668852,Río Lluta--Desembocadura,2018-03-15 08:30,1.0,-18.4165392,-70.3224081,False,-1,Arica y Parinacota
rebtro,Red-billed Tropicbird,Phaethon aethereus,L7165625,"(-22,4762,-74,0124)",2018-03-16 19:30,1.0,-22.476244,-74.012411,True,-1,Antofagasta
wfspet,White-faced Storm-Petrel,Pelagodroma marina,L7165625,"(-22,4762,-74,0124)",2018-03-16 19:30,1.0,-22.476244,-74.012411,True,-1,Antofagasta
wrspet,Wedge-rumped Storm-Petrel,Hydrobates tethys,L7165625,"(-22,4762,-74,0124)",2018-03-16 19:30,2.0,-22.476244,-74.012411,True,-1,Antofagasta
kerpet,Kermadec Petrel,Pterodroma neglecta,L7165625,"(-22,4762,-74,0124)",2018-03-16 19:30,2.0,-22.476244,-74.012411,True,-1,Antofagasta
jufpet,Juan Fernandez Petrel,Pterodroma externa,L7165625,"(-22,4762,-74,0124)",2018-03-16 19:30,12.0,-22.476244,-74.012411,True,-1,Antofagasta
silgre1,Silvery Grebe,Podiceps occipitalis,L502857,Tranque La Cadellada,2018-03-16 16:34,120.0,-33.2049405,-70.7892036,False,-1,Región Metropolitana de Santiago
